Test number(s): 16-29
Test description: flat range tests with fiberglass obstructing the antenna
Latitude: 39.9925
Longitude: -75.1415

Received: 
24 47 50 47 47 41 2C 32 30 34 32 33 32 2E 30 30
30 2C 34 30 32 36 2E 33 38 37 32 2C 4E 2C 30 37
39 35 36 2E 37 38 30 34 2C 57 2C 31 2C 30 37 2C
31 2E 32 30 2C 32 37 31 2E 31 2C 4D 2C 2D 33 24
47 50 47 47 41 2C 32 30 34 32 33 33 2E 30 30 30
2C 0 
Got: $GPGGA,204232.000,4026.3872,N,07956.7804,W,1,07,1.20,271.1,M,-3$GPGGA,204233.000,
RSSI: -74
Sent a reply
Received: 
24 47 50 47 47 41 2C 32 30 34 32 33 35 2E 30 30
30 2C 34 30 32 36 2E 33 38 38 39 2C 4E 2C 30 37
39 35 36 2E 37 38 31 30 2C 57 2C 31 2C 30 37 2C
31 2E 32 30 2C 32 37 31 2E 34 2C 4D 2C 2D 33 24
47 50 47 47 41 2C 32 30 34 32 33 36 2E 30 30 30
2C 0 
Got: $GPGGA,204235.000,4026.3889,N,07956.7810,W,1,07,1.20,271.4,M,-3$GPGGA,204236.000,
RSSI: -76
Sent a reply
Received: 
24 47 50 47 47 41 2C 32 30 34 32 33 38 2E 30 30
30 2C 34 30 32 36 2E 33 39 30 36 2C 4E 2C 30 37
39 35 36 2E 37 38 31 31 2C 57 2C 31 2C 30 37 2C
31 2E 32 30 2C 32 37 31 2E 39 2C 4D 2C 2D 33 24
47 50 47 47 41 2C 32 30 34 32 33 39 2E 30 30 30
2C 0 
Got: $GPGGA,204238.000,4026.3906,N,07956.7811,W,1,07,1.20,271.9,M,-3$GPGGA,204239.000,
RSSI: -81
Sent a reply
Received: 
24 47 50 47 47 41 2C 32 30 34 32 34 31 2E 30 30
30 2C 34 30 32 36 2E 33 39 32 30 2C 4E 2C 30 37
39 35 36 2E 37 38 31 34 2C 57 2C 31 2C 30 36 2C
31 2E 32 37 2C 32 37 32 2E 35 2C 4D 2C 2D 33 24
47 50 47 47 41 2C 32 30 34 32 34 32 2E 30 30 30
2C 0 
Got: $GPGGA,204241.000,4026.3920,N,07956.7814,W,1,06,1.27,272.5,M,-3$GPGGA,204242.000,
RSSI: -82
Sent a reply
Received: 
24 47 50 47 47 41 2C 32 30 34 32 34 34 2E 30 30
30 2C 34 30 32 36 2E 33 39 33 35 2C 4E 2C 30 37
39 35 36 2E 37 38 31 39 2C 57 2C 31 2C 30 37 2C
31 2E 32 30 2C 32 37 33 2E 31 2C 4D 2C 2D 33 24
47 50 47 47 41 2C 32 30 34 32 34 35 2E 30 30 30
2C 0 
Got: $GPGGA,204244.000,4026.3935,N,07956.7819,W,1,07,1.20,273.1,M,-3$GPGGA,204245.000,
RSSI: -87
Sent a reply
Received: 
24 47 50 47 47 41 2C 32 30 34 32 34 37 2E 30 30
30 2C 34 30 32 36 2E 33 39 34 39 2C 4E 2C 30 37
39 35 36 2E 37 38 32 30 2C 57 2C 31 2C 30 37 2C
31 2E 32 30 2C 32 37 33 2E 37 2C 4D 2C 2D 33 24
47 50 47 47 41 2C 32 30 34 32 34 38 2E 30 30 30
2C 0 
Got: $GPGGA,204247.000,4026.3949,N,07956.7820,W,1,07,1.20,273.7,M,-3$GPGGA,204248.000,
RSSI: -88
Sent a reply
Received: 
24 47 50 47 47 41 2C 32 30 34 32 35 30 2E 30 30
30 2C 34 30 32 36 2E 33 39 36 32 2C 4E 2C 30 37
39 35 36 2E 37 38 31 38 2C 57 2C 31 2C 30 38 2C
31 2E 31 32 2C 32 37 34 2E 32 2C 4D 2C 2D 33 24
47 50 47 47 41 2C 32 30 34 32 35 31 2E 30 30 30
2C 0 
Got: $GPGGA,204250.000,4026.3962,N,07956.7818,W,1,08,1.12,274.2,M,-3$GPGGA,204251.000,
RSSI: -89
Sent a reply
Received: 
24 47 50 47 47 41 2C 32 30 34 32 35 33 2E 30 30
30 2C 34 30 32 36 2E 33 39 37 34 2C 4E 2C 30 37
39 35 36 2E 37 38 31 36 2C 57 2C 31 2C 30 38 2C
31 2E 31 32 2C 32 37 34 2E 37 2C 4D 2C 2D 33 24
47 50 47 47 41 2C 32 30 34 32 35 34 2E 30 30 30
2C 0 
Got: $GPGGA,204253.000,4026.3974,N,07956.7816,W,1,08,1.12,274.7,M,-3$GPGGA,204254.000,
RSSI: -88
Sent a reply
Received: 
24 47 50 47 47 41 2C 32 30 34 32 35 36 2E 30 30
30 2C 34 30 32 36 2E 33 39 38 37 2C 4E 2C 30 37
39 35 36 2E 37 38 31 36 2C 57 2C 31 2C 30 38 2C
31 2E 31 32 2C 32 37 35 2E 34 2C 4D 2C 2D 33 24
47 50 47 47 41 2C 32 30 34 32 35 37 2E 30 30 30
2C 0 
Got: $GPGGA,204256.000,4026.3987,N,07956.7816,W,1,08,1.12,275.4,M,-3$GPGGA,204257.000,
RSSI: -90
Sent a reply
Received: 
24 47 50 47 47 41 2C 32 30 34 32 35 39 2E 30 30
30 2C 34 30 32 36 2E 34 30 30 31 2C 4E 2C 30 37
39 35 36 2E 37 38 31 39 2C 57 2C 31 2C 30 38 2C
31 2E 31 32 2C 32 37 35 2E 38 2C 4D 2C 2D 33 24
47 50 47 47 41 2C 32 30 34 33 30 30 2E 30 30 30
2C 0 
Got: $GPGGA,204259.000,4026.4001,N,07956.7819,W,1,08,1.12,275.8,M,-3$GPGGA,204300.000,
RSSI: -92
Sent a reply
Received: 
24 47 50 47 47 41 2C 32 30 34 33 30 32 2E 30 30
30 2C 34 30 32 36 2E 34 30 31 37 2C 4E 2C 30 37
39 35 36 2E 37 38 32 32 2C 57 2C 31 2C 30 38 2C
31 2E 31 32 2C 32 37 36 2E 30 2C 4D 2C 2D 33 24
47 50 47 47 41 2C 32 30 34 33 30 33 2E 30 30 30
2C 0 
Got: $GPGGA,204302.000,4026.4017,N,07956.7822,W,1,08,1.12,276.0,M,-3$GPGGA,204303.000,
RSSI: -91
Sent a reply
Received: 
24 47 50 47 47 41 2C 32 30 34 33 30 35 2E 30 30
30 2C 34 30 32 36 2E 34 30 33 34 2C 4E 2C 30 37
39 35 36 2E 37 38 32 34 2C 57 2C 31 2C 30 38 2C
31 2E 31 32 2C 32 37 36 2E 34 2C 4D 2C 2D 33 24
47 50 47 47 41 2C 32 30 34 33 30 36 2E 30 30 30
2C 0 
Got: $GPGGA,204305.000,4026.4034,N,07956.7824,W,1,08,1.12,276.4,M,-3$GPGGA,204306.000,
RSSI: -94
Sent a reply
Received: 
24 47 50 47 47 41 2C 32 30 34 33 30 38 2E 30 30
30 2C 34 30 32 36 2E 34 30 34 38 2C 4E 2C 30 37
39 35 36 2E 37 38 32 38 2C 57 2C 31 2C 30 38 2C
31 2E 31 32 2C 32 37 36 2E 38 2C 4D 2C 2D 33 24
47 50 47 47 41 2C 32 30 34 33 30 39 2E 30 30 30
2C 0 
Got: $GPGGA,204308.000,4026.4048,N,07956.7828,W,1,08,1.12,276.8,M,-3$GPGGA,204309.000,
RSSI: -96
Sent a reply
Received: 
24 47 50 47 47 41 2C 32 30 34 33 31 31 2E 30 30
30 2C 34 30 32 36 2E 34 30 36 30 2C 4E 2C 30 37
39 35 36 2E 37 38 33 30 2C 57 2C 31 2C 30 37 2C
31 2E 31 38 2C 32 37 37 2E 31 2C 4D 2C 2D 33 24
47 50 47 47 41 2C 32 30 34 33 31 32 2E 30 30 30
2C 0 
Got: $GPGGA,204311.000,4026.4060,N,07956.7830,W,1,07,1.18,277.1,M,-3$GPGGA,204312.000,
RSSI: -106
Sent a reply
Received: 
24 47 50 47 47 41 2C 32 30 34 33 31 34 2E 30 30
30 2C 34 30 32 36 2E 34 30 36 39 2C 4E 2C 30 37
39 35 36 2E 37 38 32 37 2C 57 2C 31 2C 30 38 2C
31 2E 31 32 2C 32 37 37 2E 34 2C 4D 2C 2D 33 24
47 50 47 47 41 2C 32 30 34 33 31 35 2E 30 30 30
2C 0 
Got: $GPGGA,204314.000,4026.4069,N,07956.7827,W,1,08,1.12,277.4,M,-3$GPGGA,204315.000,
RSSI: -106
Sent a reply
Received: 
24 47 50 47 47 41 2C 32 30 34 33 31 37 2E 30 30
30 2C 34 30 32 36 2E 34 30 37 38 2C 4E 2C 30 37
39 35 36 2E 37 38 32 30 2C 57 2C 31 2C 30 38 2C
31 2E 31 32 2C 32 37 38 2E 33 2C 4D 2C 2D 33 24
47 50 47 47 41 2C 32 30 34 33 31 38 2E 30 30 30
2C 0 
Got: $GPGGA,204317.000,4026.4078,N,07956.7820,W,1,08,1.12,278.3,M,-3$GPGGA,204318.000,
RSSI: -102
Sent a reply
Received: 
24 47 50 47 47 41 2C 32 30 34 33 32 30 2E 30 30
30 2C 34 30 32 36 2E 34 30 38 37 2C 4E 2C 30 37
39 35 36 2E 37 38 31 30 2C 57 2C 31 2C 30 38 2C
31 2E 30 37 2C 32 37 39 2E 35 2C 4D 2C 2D 33 24
47 50 47 47 41 2C 32 30 34 33 32 31 2E 30 30 30
2C 0 
Got: $GPGGA,204320.000,4026.4087,N,07956.7810,W,1,08,1.07,279.5,M,-3$GPGGA,204321.000,
RSSI: -105
Sent a reply
Received: 
24 47 50 47 47 41 2C 32 30 34 33 32 33 2E 30 30
30 2C 34 30 32 36 2E 34 30 39 39 2C 4E 2C 30 37
39 35 36 2E 37 38 30 34 2C 57 2C 31 2C 30 38 2C
31 2E 30 37 2C 32 38 30 2E 32 2C 4D 2C 2D 33 24
47 50 47 47 41 2C 32 30 34 33 32 34 2E 30 30 30
2C 0 
Got: $GPGGA,204323.000,4026.4099,N,07956.7804,W,1,08,1.07,280.2,M,-3$GPGGA,204324.000,
RSSI: -108
Sent a reply
Received: 
24 47 50 47 47 41 2C 32 30 34 33 33 35 2E 30 30
30 2C 34 30 32 36 2E 34 31 33 39 2C 4E 2C 30 37
39 35 36 2E 37 37 38 32 2C 57 2C 31 2C 30 38 2C
31 2E 31 32 2C 32 38 33 2E 32 2C 4D 2C 2D 33 24
47 50 47 47 41 2C 32 30 34 33 33 36 2E 30 30 30
2C 0 
Got: $GPGGA,204335.000,4026.4139,N,07956.7782,W,1,08,1.12,283.2,M,-3$GPGGA,204336.000,
RSSI: -97
Sent a reply
Received: 
24 47 50 47 47 41 2C 32 30 34 33 33 38 2E 30 30
30 2C 34 30 32 36 2E 34 31 33 36 2C 4E 2C 30 37
39 35 36 2E 37 37 37 38 2C 57 2C 31 2C 30 37 2C
31 2E 30 38 2C 32 38 33 2E 39 2C 4D 2C 2D 33 24
47 50 47 47 41 2C 32 30 34 33 33 39 2E 30 30 30
2C 0 
Got: $GPGGA,204338.000,4026.4136,N,07956.7778,W,1,07,1.08,283.9,M,-3$GPGGA,204339.000,
RSSI: -101
Sent a reply
Received: 
24 47 50 47 47 41 2C 32 30 34 33 34 31 2E 30 30
30 2C 34 30 32 36 2E 34 31 33 36 2C 4E 2C 30 37
39 35 36 2E 37 37 37 37 2C 57 2C 31 2C 30 38 2C
31 2E 30 37 2C 32 38 34 2E 33 2C 4D 2C 2D 33 24
47 50 47 47 41 2C 32 30 34 33 34 32 2E 30 30 30
2C 0 
Got: $GPGGA,204341.000,4026.4136,N,07956.7777,W,1,08,1.07,284.3,M,-3$GPGGA,204342.000,
RSSI: -100
Sent a reply
Received: 
24 47 50 47 47 41 2C 32 30 34 33 34 34 2E 30 30
30 2C 34 30 32 36 2E 34 31 33 37 2C 4E 2C 30 37
39 35 36 2E 37 37 37 36 2C 57 2C 31 2C 30 38 2C
31 2E 30 37 2C 32 38 34 2E 34 2C 4D 2C 2D 33 24
47 50 47 47 41 2C 32 30 34 33 34 35 2E 30 30 30
2C 0 
Got: $GPGGA,204344.000,4026.4137,N,07956.7776,W,1,08,1.07,284.4,M,-3$GPGGA,204345.000,
RSSI: -95
Sent a reply
Received: 
24 47 50 47 47 41 2C 32 30 34 33 34 37 2E 30 30
30 2C 34 30 32 36 2E 34 31 33 39 2C 4E 2C 30 37
39 35 36 2E 37 37 37 35 2C 57 2C 31 2C 30 38 2C
31 2E 31 32 2C 32 38 34 2E 34 2C 4D 2C 2D 33 24
47 50 47 47 41 2C 32 30 34 33 34 38 2E 30 30 30
2C 0 
Got: $GPGGA,204347.000,4026.4139,N,07956.7775,W,1,08,1.12,284.4,M,-3$GPGGA,204348.000,
RSSI: -102
Sent a reply
Received: 
24 47 50 47 47 41 2C 32 30 34 33 35 30 2E 30 30
30 2C 34 30 32 36 2E 34 31 35 31 2C 4E 2C 30 37
39 35 36 2E 37 37 37 34 2C 57 2C 31 2C 30 38 2C
31 2E 31 32 2C 32 38 34 2E 34 2C 4D 2C 2D 33 24
47 50 47 47 41 2C 32 30 34 33 35 31 2E 30 30 30
2C 0 
Got: $GPGGA,204350.000,4026.4151,N,07956.7774,W,1,08,1.12,284.4,M,-3$GPGGA,204351.000,
RSSI: -95
Sent a reply
Received: 
24 47 50 47 47 41 2C 32 30 34 33 35 37 2E 30 30
30 2C 34 30 32 36 2E 34 31 37 39 2C 4E 2C 30 37
39 35 36 2E 37 37 37 36 2C 57 2C 31 2C 30 38 2C
31 2E 31 32 2C 32 38 34 2E 35 2C 4D 2C 2D 33 24
47 50 47 47 41 2C 32 30 34 33 35 38 2E 30 30 30
2C 0 
Got: $GPGGA,204357.000,4026.4179,N,07956.7776,W,1,08,1.12,284.5,M,-3$GPGGA,204358.000,
RSSI: -108
Sent a reply
Received: 
24 47 50 47 47 41 2C 32 30 34 34 30 35 2E 30 30
30 2C 34 30 32 36 2E 34 31 39 31 2C 4E 2C 30 37
39 35 36 2E 37 37 37 32 2C 57 2C 31 2C 30 38 2C
31 2E 30 37 2C 32 38 35 2E 31 2C 4D 2C 2D 33 24
47 50 47 47 41 2C 32 30 34 34 30 36 2E 30 30 30
2C 0 
Got: $GPGGA,204405.000,4026.4191,N,07956.7772,W,1,08,1.07,285.1,M,-3$GPGGA,204406.000,
RSSI: -109
Sent a reply
Received: 
24 47 50 47 47 41 2C 32 30 34 34 31 32 2E 30 30
30 2C 34 30 32 36 2E 34 32 30 31 2C 4E 2C 30 37
39 35 36 2E 37 37 37 30 2C 57 2C 31 2C 30 38 2C
31 2E 31 32 2C 32 38 35 2E 33 2C 4D 2C 2D 33 24
47 50 47 47 41 2C 32 30 34 34 31 33 2E 30 30 30
2C 0 
Got: $GPGGA,204412.000,4026.4201,N,07956.7770,W,1,08,1.12,285.3,M,-3$GPGGA,204413.000,
RSSI: -94
Sent a reply
Received: 
24 47 50 47 47 41 2C 32 30 34 34 31 35 2E 30 30
30 2C 34 30 32 36 2E 34 32 31 31 2C 4E 2C 30 37
39 35 36 2E 37 37 37 32 2C 57 2C 31 2C 30 38 2C
31 2E 31 32 2C 32 38 35 2E 31 2C 4D 2C 2D 33 24
47 50 47 47 41 2C 32 30 34 34 31 36 2E 30 30 30
2C 0 
Got: $GPGGA,204415.000,4026.4211,N,07956.7772,W,1,08,1.12,285.1,M,-3$GPGGA,204416.000,
RSSI: -102
Sent a reply
Received: 
24 47 50 47 47 41 2C 32 30 34 34 31 38 2E 30 30
30 2C 34 30 32 36 2E 34 32 32 33 2C 4E 2C 30 37
39 35 36 2E 37 37 37 33 2C 57 2C 31 2C 30 38 2C
31 2E 31 32 2C 32 38 35 2E 30 2C 4D 2C 2D 33 24
47 50 47 47 41 2C 32 30 34 34 31 39 2E 30 30 30
2C 0 
Got: $GPGGA,204418.000,4026.4223,N,07956.7773,W,1,08,1.12,285.0,M,-3$GPGGA,204419.000,
RSSI: -104
Sent a reply
Received: 
24 47 50 47 47 41 2C 32 30 34 34 32 31 2E 30 30
30 2C 34 30 32 36 2E 34 32 33 32 2C 4E 2C 30 37
39 35 36 2E 37 37 37 35 2C 57 2C 31 2C 30 38 2C
31 2E 31 32 2C 32 38 35 2E 31 2C 4D 2C 2D 33 24
47 50 47 47 41 2C 32 30 34 34 32 32 2E 30 30 30
2C 0 
Got: $GPGGA,204421.000,4026.4232,N,07956.7775,W,1,08,1.12,285.1,M,-3$GPGGA,204422.000,
RSSI: -107
Sent a reply
Received: 
24 47 50 47 47 41 2C 32 30 34 34 32 34 2E 30 30
30 2C 34 30 32 36 2E 34 32 34 32 2C 4E 2C 30 37
39 35 36 2E 37 37 37 34 2C 57 2C 31 2C 30 38 2C
31 2E 31 32 2C 32 38 35 2E 33 2C 4D 2C 2D 33 24
47 50 47 47 41 2C 32 30 34 34 32 35 2E 30 30 30
2C 0 
Got: $GPGGA,204424.000,4026.4242,N,07956.7774,W,1,08,1.12,285.3,M,-3$GPGGA,204425.000,
RSSI: -93
Sent a reply
Received: 
24 47 50 47 47 41 2C 32 30 34 34 33 31 2E 30 30
30 2C 34 30 32 36 2E 34 32 37 32 2C 4E 2C 30 37
39 35 36 2E 37 37 37 33 2C 57 2C 31 2C 30 38 2C
31 2E 31 32 2C 32 38 35 2E 30 2C 4D 2C 2D 33 24
47 50 47 47 41 2C 32 30 34 34 33 32 2E 30 30 30
2C 0 
Got: $GPGGA,204431.000,4026.4272,N,07956.7773,W,1,08,1.12,285.0,M,-3$GPGGA,204432.000,
RSSI: -104
Sent a reply
Received: 
24 47 50 47 47 41 2C 32 30 34 34 34 38 2E 30 30
30 2C 34 30 32 36 2E 34 33 32 34 2C 4E 2C 30 37
39 35 36 2E 37 37 37 36 2C 57 2C 31 2C 30 38 2C
31 2E 31 32 2C 32 38 34 2E 34 2C 4D 2C 2D 33 39
2C 31 32 2C 32 31 2C 30 34 35 2C 32 35 2A 37 41
D 0 
Got: $GPGGA,204448.000,4026.4324,N,07956.7776,W,1,08,1.12,284.4,M,-39,12,21,045,25*7A

RSSI: -108
Sent a reply
Received: 
24 47 50 47 47 41 2C 32 30 34 34 35 30 2E 30 30
30 2C 34 30 32 36 2E 34 33 32 31 2C 4E 2C 30 37
39 35 36 2E 37 37 38 30 2C 57 2C 31 2C 30 38 2C
31 2E 30 37 2C 32 38 34 2E 35 2C 4D 2C 2D 33 24
47 50 47 47 41 2C 32 30 34 34 35 31 2E 30 30 30
2C 0 
Got: $GPGGA,204450.000,4026.4321,N,07956.7780,W,1,08,1.07,284.5,M,-3$GPGGA,204451.000,
RSSI: -110
Sent a reply
Received: 
24 47 50 47 47 41 2C 32 30 34 34 35 33 2E 30 30
30 2C 34 30 32 36 2E 34 33 32 30 2C 4E 2C 30 37
39 35 36 2E 37 37 38 30 2C 57 2C 31 2C 30 38 2C
31 2E 30 37 2C 32 38 34 2E 35 2C 4D 2C 2D 33 24
47 50 47 47 41 2C 32 30 34 34 35 34 2E 30 30 30
2C 0 
Got: $GPGGA,204453.000,4026.4320,N,07956.7780,W,1,08,1.07,284.5,M,-3$GPGGA,204454.000,
RSSI: -105
Sent a reply
Received: 
24 47 50 47 47 41 2C 32 30 34 34 35 36 2E 30 30
30 2C 34 30 32 36 2E 34 33 31 39 2C 4E 2C 30 37
39 35 36 2E 37 37 38 31 2C 57 2C 31 2C 30 38 2C
31 2E 30 37 2C 32 38 34 2E 36 2C 4D 2C 2D 33 24
47 50 47 47 41 2C 32 30 34 34 35 37 2E 30 30 30
2C 0 
Got: $GPGGA,204456.000,4026.4319,N,07956.7781,W,1,08,1.07,284.6,M,-3$GPGGA,204457.000,
RSSI: -112
Sent a reply
Received: 
24 47 50 47 47 41 2C 32 30 34 34 35 39 2E 30 30
30 2C 34 30 32 36 2E 34 33 32 31 2C 4E 2C 30 37
39 35 36 2E 37 37 38 32 2C 57 2C 31 2C 30 38 2C
31 2E 30 37 2C 32 38 34 2E 36 2C 4D 2C 2D 33 24
47 50 47 47 41 2C 32 30 34 35 30 30 2E 30 30 30
2C 0 
Got: $GPGGA,204459.000,4026.4321,N,07956.7782,W,1,08,1.07,284.6,M,-3$GPGGA,204500.000,
RSSI: -109
Sent a reply
Received: 
24 47 50 47 47 41 2C 32 30 34 35 30 32 2E 30 30
30 2C 34 30 32 36 2E 34 33 32 33 2C 4E 2C 30 37
39 35 36 2E 37 37 38 34 2C 57 2C 31 2C 30 38 2C
31 2E 30 37 2C 32 38 34 2E 35 2C 4D 2C 2D 33 24
47 50 47 47 41 2C 32 30 34 35 30 33 2E 30 30 30
2C 0 
Got: $GPGGA,204502.000,4026.4323,N,07956.7784,W,1,08,1.07,284.5,M,-3$GPGGA,204503.000,
RSSI: -109
Sent a reply
Received: 
24 47 50 47 47 41 2C 32 30 34 35 30 35 2E 30 30
30 2C 34 30 32 36 2E 34 33 32 34 2C 4E 2C 30 37
39 35 36 2E 37 37 38 35 2C 57 2C 31 2C 30 38 2C
31 2E 31 32 2C 32 38 34 2E 35 2C 4D 2C 2D 33 24
47 50 47 47 41 2C 32 30 34 35 30 36 2E 30 30 30
2C 0 
Got: $GPGGA,204505.000,4026.4324,N,07956.7785,W,1,08,1.12,284.5,M,-3$GPGGA,204506.000,
RSSI: -108
Sent a reply
Received: 
24 47 50 47 47 41 2C 32 30 34 35 30 38 2E 30 30
30 2C 34 30 32 36 2E 34 33 32 35 2C 4E 2C 30 37
39 35 36 2E 37 37 38 33 2C 57 2C 31 2C 30 38 2C
31 2E 30 37 2C 32 38 34 2E 35 2C 4D 2C 2D 33 24
47 50 47 47 41 2C 32 30 34 35 30 39 2E 30 30 30
2C 0 
Got: $GPGGA,204508.000,4026.4325,N,07956.7783,W,1,08,1.07,284.5,M,-3$GPGGA,204509.000,
RSSI: -108
Sent a reply
Received: 
24 47 50 47 47 41 2C 32 30 34 35 31 31 2E 30 30
30 2C 34 30 32 36 2E 34 33 32 35 2C 4E 2C 30 37
39 35 36 2E 37 37 38 32 2C 57 2C 31 2C 30 38 2C
31 2E 30 37 2C 32 38 34 2E 35 2C 4D 2C 2D 33 24
47 50 47 47 41 2C 32 30 34 35 31 32 2E 30 30 30
2C 0 
Got: $GPGGA,204511.000,4026.4325,N,07956.7782,W,1,08,1.07,284.5,M,-3$GPGGA,204512.000,
RSSI: -110
Sent a reply
Received: 
24 47 50 47 47 41 2C 32 30 34 35 32 36 2E 30 30
30 2C 34 30 32 36 2E 34 33 32 34 2C 4E 2C 30 37
39 35 36 2E 37 37 38 30 2C 57 2C 31 2C 30 38 2C
31 2E 30 37 2C 32 38 34 2E 36 2C 4D 2C 2D 33 24
47 50 47 47 41 2C 32 30 34 35 32 37 2E 30 30 30
2C 0 
Got: $GPGGA,204526.000,4026.4324,N,07956.7780,W,1,08,1.07,284.6,M,-3$GPGGA,204527.000,
RSSI: -97
Sent a reply
Received: 
24 47 50 47 47 41 2C 32 30 34 35 32 39 2E 30 30
30 2C 34 30 32 36 2E 34 33 32 36 2C 4E 2C 30 37
39 35 36 2E 37 37 38 30 2C 57 2C 31 2C 30 38 2C
31 2E 30 37 2C 32 38 34 2E 36 2C 4D 2C 2D 33 24
47 50 47 47 41 2C 32 30 34 35 33 30 2E 30 30 30
2C 0 
Got: $GPGGA,204529.000,4026.4326,N,07956.7780,W,1,08,1.07,284.6,M,-3$GPGGA,204530.000,
RSSI: -98
Sent a reply
Received: 
24 47 50 47 47 41 2C 32 30 34 35 33 32 2E 30 30
30 2C 34 30 32 36 2E 34 33 32 38 2C 4E 2C 30 37
39 35 36 2E 37 37 38 30 2C 57 2C 31 2C 30 38 2C
31 2E 30 36 2C 32 38 34 2E 36 2C 4D 2C 2D 33 24
47 50 47 47 41 2C 32 30 34 35 33 33 2E 30 30 30
2C 0 
Got: $GPGGA,204532.000,4026.4328,N,07956.7780,W,1,08,1.06,284.6,M,-3$GPGGA,204533.000,
RSSI: -98
Sent a reply
Received: 
24 47 50 47 47 41 2C 32 30 34 35 33 35 2E 30 30
30 2C 34 30 32 36 2E 34 33 33 30 2C 4E 2C 30 37
39 35 36 2E 37 37 38 31 2C 57 2C 31 2C 30 38 2C
31 2E 31 31 2C 32 38 34 2E 37 2C 4D 2C 2D 33 24
47 50 47 47 41 2C 32 30 34 35 33 36 2E 30 30 30
2C 0 
Got: $GPGGA,204535.000,4026.4330,N,07956.7781,W,1,08,1.11,284.7,M,-3$GPGGA,204536.000,
RSSI: -97
Sent a reply
Received: 
24 47 50 47 47 41 2C 32 30 34 35 33 38 2E 30 30
30 2C 34 30 32 36 2E 34 33 33 31 2C 4E 2C 30 37
39 35 36 2E 37 37 38 32 2C 57 2C 31 2C 30 38 2C
31 2E 30 36 2C 32 38 34 2E 37 2C 4D 2C 2D 33 24
47 50 47 47 41 2C 32 30 34 35 33 39 2E 30 30 30
2C 0 
Got: $GPGGA,204538.000,4026.4331,N,07956.7782,W,1,08,1.06,284.7,M,-3$GPGGA,204539.000,
RSSI: -95
Sent a reply
Received: 
24 47 50 47 47 41 2C 32 30 34 35 34 31 2E 30 30
30 2C 34 30 32 36 2E 34 33 33 38 2C 4E 2C 30 37
39 35 36 2E 37 37 38 35 2C 57 2C 31 2C 30 38 2C
31 2E 31 31 2C 32 38 34 2E 37 2C 4D 2C 2D 33 24
47 50 47 47 41 2C 32 30 34 35 34 32 2E 30 30 30
2C 0 
Got: $GPGGA,204541.000,4026.4338,N,07956.7785,W,1,08,1.11,284.7,M,-3$GPGGA,204542.000,
RSSI: -96
Sent a reply
Received: 
24 47 50 47 47 41 2C 32 30 34 35 34 34 2E 30 30
30 2C 34 30 32 36 2E 34 33 34 36 2C 4E 2C 30 37
39 35 36 2E 37 37 38 39 2C 57 2C 31 2C 30 38 2C
31 2E 31 31 2C 32 38 34 2E 38 2C 4D 2C 2D 33 24
47 50 47 47 41 2C 32 30 34 35 34 35 2E 30 30 30
2C 0 
Got: $GPGGA,204544.000,4026.4346,N,07956.7789,W,1,08,1.11,284.8,M,-3$GPGGA,204545.000,
RSSI: -106
Sent a reply
Received: 
24 47 50 47 47 41 2C 32 30 34 35 34 37 2E 30 30
30 2C 34 30 32 36 2E 34 33 35 37 2C 4E 2C 30 37
39 35 36 2E 37 37 38 38 2C 57 2C 31 2C 30 38 2C
31 2E 31 31 2C 32 38 34 2E 39 2C 4D 2C 2D 33 24
47 50 47 47 41 2C 32 30 34 35 34 38 2E 30 30 30
2C 0 
Got: $GPGGA,204547.000,4026.4357,N,07956.7788,W,1,08,1.11,284.9,M,-3$GPGGA,204548.000,
RSSI: -105
Sent a reply
Received: 
24 47 50 47 47 41 2C 32 30 34 36 32 31 2E 30 30
30 2C 34 30 32 36 2E 34 34 30 33 2C 4E 2C 30 37
39 35 36 2E 37 37 39 30 2C 57 2C 32 2C 30 38 2C
31 2E 30 36 2C 32 38 34 2E 31 2C 4D 2C 2D 33 24
47 50 47 47 41 2C 32 30 34 36 32 32 2E 30 30 30
2C 0 
Got: $GPGGA,204621.000,4026.4403,N,07956.7790,W,2,08,1.06,284.1,M,-3$GPGGA,204622.000,
RSSI: -108
Sent a reply
Received: 
24 47 50 47 47 41 2C 32 30 34 36 32 34 2E 30 30
30 2C 34 30 32 36 2E 34 34 30 32 2C 4E 2C 30 37
39 35 36 2E 37 37 39 32 2C 57 2C 32 2C 30 38 2C
31 2E 30 36 2C 32 38 33 2E 37 2C 4D 2C 2D 33 24
47 50 47 47 41 2C 32 30 34 36 32 35 2E 30 30 30
2C 0 
Got: $GPGGA,204624.000,4026.4402,N,07956.7792,W,2,08,1.06,283.7,M,-3$GPGGA,204625.000,
RSSI: -112
Sent a reply
Received: 
24 47 50 47 47 41 2C 32 30 34 36 32 37 2E 30 30
30 2C 34 30 32 36 2E 34 34 30 33 2C 4E 2C 30 37
39 35 36 2E 37 37 39 32 2C 57 2C 32 2C 30 38 2C
31 2E 31 31 2C 32 38 33 2E 35 2C 4D 2C 2D 33 24
47 50 47 47 41 2C 32 30 34 36 32 38 2E 30 30 30
2C 0 
Got: $GPGGA,204627.000,4026.4403,N,07956.7792,W,2,08,1.11,283.5,M,-3$GPGGA,204628.000,
RSSI: -111
Sent a reply
Received: 
24 47 50 47 47 41 2C 32 30 34 36 33 30 2E 30 30
30 2C 34 30 32 36 2E 34 34 30 32 2C 4E 2C 30 37
39 35 36 2E 37 37 39 31 2C 57 2C 32 2C 30 38 2C
31 2E 30 36 2C 32 38 33 2E 33 2C 4D 2C 2D 33 24
47 50 47 47 41 2C 32 30 34 36 33 31 2E 30 30 30
2C 0 
Got: $GPGGA,204630.000,4026.4402,N,07956.7791,W,2,08,1.06,283.3,M,-3$GPGGA,204631.000,
RSSI: -106
Sent a reply
Received: 
24 47 50 47 47 41 2C 32 30 34 36 35 33 2E 30 30
30 2C 34 30 32 36 2E 34 34 36 31 2C 4E 2C 30 37
39 35 36 2E 37 37 38 34 2C 57 2C 32 2C 30 38 2C
31 2E 31 31 2C 32 38 34 2E 35 2C 4D 2C 2D 33 32
32 2C 32 34 2C 33 31 32 2C 32 32 2C 31 32 2C 32
31 0 
Got: $GPGGA,204653.000,4026.4461,N,07956.7784,W,2,08,1.11,284.5,M,-322,24,312,22,12,21
RSSI: -108
Sent a reply
Received: 
24 47 50 47 47 41 2C 32 30 34 36 35 35 2E 30 30
30 2C 34 30 32 36 2E 34 34 36 30 2C 4E 2C 30 37
39 35 36 2E 37 37 38 37 2C 57 2C 32 2C 30 38 2C
31 2E 30 36 2C 32 38 34 2E 35 2C 4D 2C 2D 33 24
47 50 47 47 41 2C 32 30 34 36 35 36 2E 30 30 30
2C 0 
Got: $GPGGA,204655.000,4026.4460,N,07956.7787,W,2,08,1.06,284.5,M,-3$GPGGA,204656.000,
RSSI: -109
Sent a reply
Received: 
24 47 50 47 47 41 2C 32 30 34 37 31 35 2E 30 30
30 2C 34 30 32 36 2E 34 34 36 31 2C 4E 2C 30 37
39 35 36 2E 37 37 38 34 2C 57 2C 32 2C 30 38 2C
31 2E 31 31 2C 32 38 34 2E 37 2C 4D 2C 2D 33 54
2C 2C 4D 2C 30 2E 33 30 2C 4E 2C 30 2E 35 35 2C
4B 0 
Got: $GPGGA,204715.000,4026.4461,N,07956.7784,W,2,08,1.11,284.7,M,-3T,,M,0.30,N,0.55,K
RSSI: -104
Sent a reply
Received: 
24 47 50 47 47 41 2C 32 30 34 37 31 36 2E 30 30
30 2C 34 30 32 36 2E 34 34 36 30 2C 4E 2C 30 37
39 35 36 2E 37 37 38 33 2C 57 2C 32 2C 30 38 2C
31 2E 30 36 2C 32 38 34 2E 38 2C 4D 2C 2D 33 24
47 50 47 47 41 2C 32 30 34 37 31 37 2E 30 30 30
2C 0 
Got: $GPGGA,204716.000,4026.4460,N,07956.7783,W,2,08,1.06,284.8,M,-3$GPGGA,204717.000,
RSSI: -106
Sent a reply
Received: 
24 47 50 47 47 41 2C 32 30 34 37 31 39 2E 30 30
30 2C 34 30 32 36 2E 34 34 36 31 2C 4E 2C 30 37
39 35 36 2E 37 37 38 32 2C 57 2C 32 2C 30 38 2C
31 2E 30 36 2C 32 38 34 2E 38 2C 4D 2C 2D 33 24
47 50 47 47 41 2C 32 30 34 37 32 30 2E 30 30 30
2C 0 
Got: $GPGGA,204719.000,4026.4461,N,07956.7782,W,2,08,1.06,284.8,M,-3$GPGGA,204720.000,
RSSI: -109
Sent a reply
Received: 
24 47 50 47 47 41 2C 32 30 34 37 32 32 2E 30 30
30 2C 34 30 32 36 2E 34 34 36 32 2C 4E 2C 30 37
39 35 36 2E 37 37 38 30 2C 57 2C 32 2C 30 38 2C
31 2E 30 36 2C 32 38 34 2E 38 2C 4D 2C 2D 33 24
47 50 47 47 41 2C 32 30 34 37 32 33 2E 30 30 30
2C 0 
Got: $GPGGA,204722.000,4026.4462,N,07956.7780,W,2,08,1.06,284.8,M,-3$GPGGA,204723.000,
RSSI: -107
Sent a reply
Received: 
24 47 50 47 47 41 2C 32 30 34 37 32 35 2E 30 30
30 2C 34 30 32 36 2E 34 34 36 33 2C 4E 2C 30 37
39 35 36 2E 37 37 37 39 2C 57 2C 32 2C 30 38 2C
31 2E 31 31 2C 32 38 34 2E 38 2C 4D 2C 2D 33 24
47 50 47 47 41 2C 32 30 34 37 32 36 2E 30 30 30
2C 0 
Got: $GPGGA,204725.000,4026.4463,N,07956.7779,W,2,08,1.11,284.8,M,-3$GPGGA,204726.000,
RSSI: -105
Sent a reply
Received: 
24 47 50 47 47 41 2C 32 30 34 37 32 38 2E 30 30
30 2C 34 30 32 36 2E 34 34 37 30 2C 4E 2C 30 37
39 35 36 2E 37 37 38 33 2C 57 2C 32 2C 30 38 2C
31 2E 31 30 2C 32 38 35 2E 31 2C 4D 2C 2D 33 24
47 50 47 47 41 2C 32 30 34 37 32 39 2E 30 30 30
2C 0 
Got: $GPGGA,204728.000,4026.4470,N,07956.7783,W,2,08,1.10,285.1,M,-3$GPGGA,204729.000,
RSSI: -103
Sent a reply
Received: 
24 47 50 47 47 41 2C 32 30 34 37 33 31 2E 30 30
30 2C 34 30 32 36 2E 34 34 38 30 2C 4E 2C 30 37
39 35 36 2E 37 37 38 38 2C 57 2C 32 2C 30 38 2C
31 2E 31 30 2C 32 38 35 2E 34 2C 4D 2C 2D 33 24
47 50 47 47 41 2C 32 30 34 37 33 32 2E 30 30 30
2C 0 
Got: $GPGGA,204731.000,4026.4480,N,07956.7788,W,2,08,1.10,285.4,M,-3$GPGGA,204732.000,
RSSI: -96
Sent a reply
Received: 
24 47 50 47 47 41 2C 32 30 34 37 33 34 2E 30 30
30 2C 34 30 32 36 2E 34 34 39 31 2C 4E 2C 30 37
39 35 36 2E 37 37 39 30 2C 57 2C 32 2C 30 38 2C
31 2E 31 30 2C 32 38 35 2E 34 2C 4D 2C 2D 33 24
47 50 47 47 41 2C 32 30 34 37 33 35 2E 30 30 30
2C 0 
Got: $GPGGA,204734.000,4026.4491,N,07956.7790,W,2,08,1.10,285.4,M,-3$GPGGA,204735.000,
RSSI: -103
Sent a reply
Received: 
24 47 50 47 47 41 2C 32 30 34 37 33 37 2E 30 30
30 2C 34 30 32 36 2E 34 35 30 32 2C 4E 2C 30 37
39 35 36 2E 37 37 39 30 2C 57 2C 32 2C 30 38 2C
31 2E 31 30 2C 32 38 35 2E 33 2C 4D 2C 2D 33 24
47 50 47 47 41 2C 32 30 34 37 33 38 2E 30 30 30
2C 0 
Got: $GPGGA,204737.000,4026.4502,N,07956.7790,W,2,08,1.10,285.3,M,-3$GPGGA,204738.000,
RSSI: -105
Sent a reply
Received: 
24 47 50 47 47 41 2C 32 30 34 38 30 31 2E 30 30
30 2C 34 30 32 36 2E 34 35 32 39 2C 4E 2C 30 37
39 35 36 2E 37 38 30 35 2C 57 2C 32 2C 30 38 2C
30 2E 39 33 2C 32 38 33 2E 37 2C 4D 2C 2D 33 32
37 37 2E 32 31 2C 30 32 31 32 31 38 2C 2C 2C 44
2A 0 
Got: $GPGGA,204801.000,4026.4529,N,07956.7805,W,2,08,0.93,283.7,M,-3277.21,021218,,,D*
RSSI: -109
Sent a reply
Received: 
24 47 50 47 47 41 2C 32 30 34 38 30 37 2E 30 30
30 2C 34 30 32 36 2E 34 35 32 38 2C 4E 2C 30 37
39 35 36 2E 37 38 30 36 2C 57 2C 32 2C 30 39 2C
30 2E 39 31 2C 32 38 33 2E 37 2C 4D 2C 2D 33 4E
2C 30 2E 34 30 2C 4B 2C 44 2A 33 37 D A 0 44
2A 0 
Got: $GPGGA,204807.000,4026.4528,N,07956.7806,W,2,09,0.91,283.7,M,-3N,0.40,K,D*37

RSSI: -111
Sent a reply
Received: 
24 47 50 47 47 41 2C 32 30 34 38 30 38 2E 30 30
30 2C 34 30 32 36 2E 34 35 32 38 2C 4E 2C 30 37
39 35 36 2E 37 38 30 36 2C 57 2C 32 2C 30 39 2C
30 2E 39 31 2C 32 38 33 2E 37 2C 4D 2C 2D 33 24
47 50 47 47 41 2C 32 30 34 38 30 39 2E 30 30 30
2C 0 
Got: $GPGGA,204808.000,4026.4528,N,07956.7806,W,2,09,0.91,283.7,M,-3$GPGGA,204809.000,
RSSI: -110
Sent a reply
Received: 
24 47 50 47 47 41 2C 32 30 34 38 32 30 2E 30 30
30 2C 34 30 32 36 2E 34 35 34 32 2C 4E 2C 30 37
39 35 36 2E 37 38 31 34 2C 57 2C 32 2C 30 39 2C
30 2E 39 31 2C 32 38 33 2E 36 2C 4D 2C 2D 33 24
47 50 47 47 41 2C 32 30 34 38 32 31 2E 30 30 30
2C 0 
Got: $GPGGA,204820.000,4026.4542,N,07956.7814,W,2,09,0.91,283.6,M,-3$GPGGA,204821.000,
RSSI: -111
Sent a reply
Received: 
24 47 50 47 47 41 2C 32 30 34 38 32 33 2E 30 30
30 2C 34 30 32 36 2E 34 35 34 30 2C 4E 2C 30 37
39 35 36 2E 37 38 30 36 2C 57 2C 32 2C 30 39 2C
30 2E 39 31 2C 32 38 33 2E 31 2C 4D 2C 2D 33 35
2C 33 31 32 2C 33 33 2C 30 31 2C 32 30 2C 32 39
34 0 
Got: $GPGGA,204823.000,4026.4540,N,07956.7806,W,2,09,0.91,283.1,M,-35,312,33,01,20,294
RSSI: -112
Sent a reply
Received: 
24 47 50 47 47 41 2C 32 30 34 38 32 35 2E 30 30
30 2C 34 30 32 36 2E 34 35 33 39 2C 4E 2C 30 37
39 35 36 2E 37 38 30 31 2C 57 2C 32 2C 30 38 2C
30 2E 39 33 2C 32 38 33 2E 31 2C 4D 2C 2D 33 24
47 50 47 47 41 2C 32 30 34 38 32 36 2E 30 30 30
2C 0 
Got: $GPGGA,204825.000,4026.4539,N,07956.7801,W,2,08,0.93,283.1,M,-3$GPGGA,204826.000,
RSSI: -113
Sent a reply
Received: 
24 47 50 47 47 41 2C 32 30 34 38 32 38 2E 30 30
30 2C 34 30 32 36 2E 34 35 34 30 2C 4E 2C 30 37
39 35 36 2E 37 38 30 31 2C 57 2C 32 2C 30 39 2C
30 2E 39 31 2C 32 38 33 2E 31 2C 4D 2C 2D 33 24
47 50 47 47 41 2C 32 30 34 38 32 39 2E 30 30 30
2C 0 
Got: $GPGGA,204828.000,4026.4540,N,07956.7801,W,2,09,0.91,283.1,M,-3$GPGGA,204829.000,
RSSI: -112
Sent a reply
Received: 
24 47 50 47 47 41 2C 32 30 34 38 33 35 2E 30 30
30 2C 34 30 32 36 2E 34 35 34 31 2C 4E 2C 30 37
39 35 36 2E 37 38 30 33 2C 57 2C 32 2C 30 39 2C
30 2E 39 31 2C 32 38 33 2E 31 2C 4D 2C 2D 33 24
47 50 47 47 41 2C 32 30 34 38 33 36 2E 30 30 30
2C 0 
Got: $GPGGA,204835.000,4026.4541,N,07956.7803,W,2,09,0.91,283.1,M,-3$GPGGA,204836.000,
RSSI: -112
Sent a reply
Received: 
24 47 50 47 47 41 2C 32 30 34 39 31 31 2E 30 30
30 2C 34 30 32 36 2E 34 35 37 33 2C 4E 2C 30 37
39 35 36 2E 37 38 30 36 2C 57 2C 32 2C 30 39 2C
30 2E 39 31 2C 32 38 31 2E 35 2C 4D 2C 2D 33 24
47 50 47 47 41 2C 32 30 34 39 31 32 2E 30 30 30
2C 0 
Got: $GPGGA,204911.000,4026.4573,N,07956.7806,W,2,09,0.91,281.5,M,-3$GPGGA,204912.000,
RSSI: -108
Sent a reply
Received: 
24 47 50 47 47 41 2C 32 30 34 39 31 34 2E 30 30
30 2C 34 30 32 36 2E 34 35 37 33 2C 4E 2C 30 37
39 35 36 2E 37 38 30 36 2C 57 2C 32 2C 30 39 2C
30 2E 39 31 2C 32 38 31 2E 35 2C 4D 2C 2D 33 24
47 50 47 47 41 2C 32 30 34 39 31 35 2E 30 30 30
2C 0 
Got: $GPGGA,204914.000,4026.4573,N,07956.7806,W,2,09,0.91,281.5,M,-3$GPGGA,204915.000,
RSSI: -109
Sent a reply
Received: 
24 47 50 47 47 41 2C 32 30 34 39 31 37 2E 30 30
30 2C 34 30 32 36 2E 34 35 37 33 2C 4E 2C 30 37
39 35 36 2E 37 38 30 36 2C 57 2C 32 2C 30 39 2C
30 2E 39 31 2C 32 38 31 2E 35 2C 4D 2C 2D 33 24
47 50 47 47 41 2C 32 30 34 39 31 38 2E 30 30 30
2C 0 
Got: $GPGGA,204917.000,4026.4573,N,07956.7806,W,2,09,0.91,281.5,M,-3$GPGGA,204918.000,
RSSI: -109
Sent a reply
Received: 
24 47 50 47 47 41 2C 32 30 34 39 32 30 2E 30 30
30 2C 34 30 32 36 2E 34 35 37 33 2C 4E 2C 30 37
39 35 36 2E 37 38 30 36 2C 57 2C 32 2C 30 39 2C
30 2E 39 31 2C 32 38 31 2E 36 2C 4D 2C 2D 33 24
47 50 47 47 41 2C 32 30 34 39 32 31 2E 30 30 30
2C 0 
Got: $GPGGA,204920.000,4026.4573,N,07956.7806,W,2,09,0.91,281.6,M,-3$GPGGA,204921.000,
RSSI: -105
Sent a reply
Received: 
24 47 50 47 47 41 2C 32 30 34 39 32 33 2E 30 30
30 2C 34 30 32 36 2E 34 35 37 33 2C 4E 2C 30 37
39 35 36 2E 37 38 30 36 2C 57 2C 32 2C 30 39 2C
30 2E 39 31 2C 32 38 31 2E 36 2C 4D 2C 2D 33 24
47 50 47 47 41 2C 32 30 34 39 32 34 2E 30 30 30
2C 0 
Got: $GPGGA,204923.000,4026.4573,N,07956.7806,W,2,09,0.91,281.6,M,-3$GPGGA,204924.000,
RSSI: -109
Sent a reply
Received: 
24 47 50 47 47 41 2C 32 30 34 39 32 36 2E 30 30
30 2C 34 30 32 36 2E 34 35 37 33 2C 4E 2C 30 37
39 35 36 2E 37 38 30 36 2C 57 2C 32 2C 30 39 2C
30 2E 39 31 2C 32 38 31 2E 36 2C 4D 2C 2D 33 24
47 50 47 47 41 2C 32 30 34 39 32 37 2E 30 30 30
2C 0 
Got: $GPGGA,204926.000,4026.4573,N,07956.7806,W,2,09,0.91,281.6,M,-3$GPGGA,204927.000,
RSSI: -107
Sent a reply
Received: 
24 47 50 47 47 41 2C 32 30 34 39 32 39 2E 30 30
30 2C 34 30 32 36 2E 34 35 37 33 2C 4E 2C 30 37
39 35 36 2E 37 38 30 36 2C 57 2C 32 2C 30 39 2C
30 2E 39 31 2C 32 38 31 2E 36 2C 4D 2C 2D 33 24
47 50 47 47 41 2C 32 30 34 39 33 30 2E 30 30 30
2C 0 
Got: $GPGGA,204929.000,4026.4573,N,07956.7806,W,2,09,0.91,281.6,M,-3$GPGGA,204930.000,
RSSI: -106
Sent a reply
Received: 
24 47 50 47 47 41 2C 32 30 34 39 33 32 2E 30 30
30 2C 34 30 32 36 2E 34 35 37 33 2C 4E 2C 30 37
39 35 36 2E 37 38 30 36 2C 57 2C 32 2C 30 39 2C
30 2E 39 31 2C 32 38 31 2E 36 2C 4D 2C 2D 33 24
47 50 47 47 41 2C 32 30 34 39 33 33 2E 30 30 30
2C 0 
Got: $GPGGA,204932.000,4026.4573,N,07956.7806,W,2,09,0.91,281.6,M,-3$GPGGA,204933.000,
RSSI: -105
Sent a reply
Received: 
24 47 50 47 47 41 2C 32 30 34 39 33 35 2E 30 30
30 2C 34 30 32 36 2E 34 35 37 33 2C 4E 2C 30 37
39 35 36 2E 37 38 30 36 2C 57 2C 32 2C 30 39 2C
30 2E 39 31 2C 32 38 31 2E 36 2C 4D 2C 2D 33 24
47 50 47 47 41 2C 32 30 34 39 33 36 2E 30 30 30
2C 0 
Got: $GPGGA,204935.000,4026.4573,N,07956.7806,W,2,09,0.91,281.6,M,-3$GPGGA,204936.000,
RSSI: -109
Sent a reply
Received: 
24 47 50 47 47 41 2C 32 30 34 39 33 38 2E 30 30
30 2C 34 30 32 36 2E 34 35 37 34 2C 4E 2C 30 37
39 35 36 2E 37 38 30 37 2C 57 2C 32 2C 30 39 2C
30 2E 39 31 2C 32 38 31 2E 37 2C 4D 2C 2D 33 24
47 50 47 47 41 2C 32 30 34 39 33 39 2E 30 30 30
2C 0 
Got: $GPGGA,204938.000,4026.4574,N,07956.7807,W,2,09,0.91,281.7,M,-3$GPGGA,204939.000,
RSSI: -108
Sent a reply
Received: 
24 47 50 47 47 41 2C 32 30 34 39 34 31 2E 30 30
30 2C 34 30 32 36 2E 34 35 37 35 2C 4E 2C 30 37
39 35 36 2E 37 38 30 37 2C 57 2C 32 2C 30 39 2C
30 2E 39 31 2C 32 38 31 2E 37 2C 4D 2C 2D 33 24
47 50 47 47 41 2C 32 30 34 39 34 32 2E 30 30 30
2C 0 
Got: $GPGGA,204941.000,4026.4575,N,07956.7807,W,2,09,0.91,281.7,M,-3$GPGGA,204942.000,
RSSI: -105
Sent a reply
Received: 
24 47 50 47 47 41 2C 32 30 34 39 34 34 2E 30 30
30 2C 34 30 32 36 2E 34 35 37 39 2C 4E 2C 30 37
39 35 36 2E 37 38 30 39 2C 57 2C 32 2C 30 39 2C
30 2E 39 31 2C 32 38 31 2E 37 2C 4D 2C 2D 33 24
47 50 47 47 41 2C 32 30 34 39 34 35 2E 30 30 30
2C 0 
Got: $GPGGA,204944.000,4026.4579,N,07956.7809,W,2,09,0.91,281.7,M,-3$GPGGA,204945.000,
RSSI: -98
Sent a reply
Received: 
24 47 50 47 47 41 2C 32 30 34 39 34 37 2E 30 30
30 2C 34 30 32 36 2E 34 35 38 35 2C 4E 2C 30 37
39 35 36 2E 37 38 31 32 2C 57 2C 32 2C 30 39 2C
30 2E 39 31 2C 32 38 31 2E 38 2C 4D 2C 2D 33 24
47 50 47 47 41 2C 32 30 34 39 34 38 2E 30 30 30
2C 0 
Got: $GPGGA,204947.000,4026.4585,N,07956.7812,W,2,09,0.91,281.8,M,-3$GPGGA,204948.000,
RSSI: -103
Sent a reply
Received: 
24 47 50 47 47 41 2C 32 30 35 30 30 33 2E 30 30
30 2C 34 30 32 36 2E 34 36 33 35 2C 4E 2C 30 37
39 35 36 2E 37 37 38 38 2C 57 2C 32 2C 30 39 2C
30 2E 39 31 2C 32 38 32 2E 34 2C 4D 2C 2D 33 31
32 2C 33 36 2C 30 31 2C 32 30 2C 32 39 33 2C 32
37 0 
Got: $GPGGA,205003.000,4026.4635,N,07956.7788,W,2,09,0.91,282.4,M,-312,36,01,20,293,27
RSSI: -97
Sent a reply
Received: 
24 47 50 47 47 41 2C 32 30 35 30 30 35 2E 30 30
30 2C 34 30 32 36 2E 34 36 33 39 2C 4E 2C 30 37
39 35 36 2E 37 37 38 34 2C 57 2C 32 2C 30 39 2C
30 2E 39 31 2C 32 38 32 2E 32 2C 4D 2C 2D 33 24
47 50 47 47 41 2C 32 30 35 30 30 36 2E 30 30 30
2C 0 
Got: $GPGGA,205005.000,4026.4639,N,07956.7784,W,2,09,0.91,282.2,M,-3$GPGGA,205006.000,
RSSI: -97
Sent a reply
Received: 
24 47 50 47 47 41 2C 32 30 35 30 30 38 2E 30 30
30 2C 34 30 32 36 2E 34 36 34 32 2C 4E 2C 30 37
39 35 36 2E 37 37 38 32 2C 57 2C 32 2C 30 39 2C
30 2E 39 31 2C 32 38 32 2E 31 2C 4D 2C 2D 33 24
47 50 47 47 41 2C 32 30 35 30 30 39 2E 30 30 30
2C 0 
Got: $GPGGA,205008.000,4026.4642,N,07956.7782,W,2,09,0.91,282.1,M,-3$GPGGA,205009.000,
RSSI: -97
Sent a reply
Received: 
24 47 50 47 47 41 2C 32 30 35 30 31 31 2E 30 30
30 2C 34 30 32 36 2E 34 36 34 33 2C 4E 2C 30 37
39 35 36 2E 37 37 38 31 2C 57 2C 32 2C 30 39 2C
30 2E 39 31 2C 32 38 32 2E 31 2C 4D 2C 2D 33 24
47 50 47 47 41 2C 32 30 35 30 31 32 2E 30 30 30
2C 0 
Got: $GPGGA,205011.000,4026.4643,N,07956.7781,W,2,09,0.91,282.1,M,-3$GPGGA,205012.000,
RSSI: -97
Sent a reply
Received: 
24 47 50 47 47 41 2C 32 30 35 30 31 34 2E 30 30
30 2C 34 30 32 36 2E 34 36 34 34 2C 4E 2C 30 37
39 35 36 2E 37 37 38 30 2C 57 2C 32 2C 30 39 2C
30 2E 39 31 2C 32 38 32 2E 31 2C 4D 2C 2D 33 24
47 50 47 47 41 2C 32 30 35 30 31 35 2E 30 30 30
2C 0 
Got: $GPGGA,205014.000,4026.4644,N,07956.7780,W,2,09,0.91,282.1,M,-3$GPGGA,205015.000,
RSSI: -104
Sent a reply
Received: 
24 47 50 47 47 41 2C 32 30 35 30 31 37 2E 30 30
30 2C 34 30 32 36 2E 34 36 35 30 2C 4E 2C 30 37
39 35 36 2E 37 37 38 31 2C 57 2C 32 2C 30 39 2C
30 2E 39 31 2C 32 38 32 2E 31 2C 4D 2C 2D 33 24
47 50 47 47 41 2C 32 30 35 30 31 38 2E 30 30 30
2C 0 
Got: $GPGGA,205017.000,4026.4650,N,07956.7781,W,2,09,0.91,282.1,M,-3$GPGGA,205018.000,
RSSI: -97
Sent a reply
Received: 
24 47 50 47 47 41 2C 32 30 35 30 32 35 2E 30 30
30 2C 34 30 32 36 2E 34 36 37 33 2C 4E 2C 30 37
39 35 36 2E 37 37 38 36 2C 57 2C 32 2C 30 39 2C
30 2E 39 31 2C 32 38 32 2E 38 2C 4D 2C 2D 33 24
47 50 47 47 41 2C 32 30 35 30 32 36 2E 30 30 30
2C 0 
Got: $GPGGA,205025.000,4026.4673,N,07956.7786,W,2,09,0.91,282.8,M,-3$GPGGA,205026.000,
RSSI: -99
Sent a reply
Received: 
24 47 50 47 47 41 2C 32 30 35 30 32 38 2E 30 30
30 2C 34 30 32 36 2E 34 36 38 31 2C 4E 2C 30 37
39 35 36 2E 37 37 39 30 2C 57 2C 32 2C 30 39 2C
30 2E 39 31 2C 32 38 33 2E 31 2C 4D 2C 2D 33 24
47 50 47 47 41 2C 32 30 35 30 32 39 2E 30 30 30
2C 0 
Got: $GPGGA,205028.000,4026.4681,N,07956.7790,W,2,09,0.91,283.1,M,-3$GPGGA,205029.000,
RSSI: -109
Sent a reply
Received: 
24 47 50 47 47 41 2C 32 30 35 30 33 31 2E 30 30
30 2C 34 30 32 36 2E 34 36 39 32 2C 4E 2C 30 37
39 35 36 2E 37 37 38 39 2C 57 2C 32 2C 30 39 2C
30 2E 39 31 2C 32 38 33 2E 35 2C 4D 2C 2D 33 24
47 50 47 47 41 2C 32 30 35 30 33 32 2E 30 30 30
2C 0 
Got: $GPGGA,205031.000,4026.4692,N,07956.7789,W,2,09,0.91,283.5,M,-3$GPGGA,205032.000,
RSSI: -113
Sent a reply
Received: 
24 47 50 47 47 41 2C 32 30 35 30 33 34 2E 30 30
30 2C 34 30 32 36 2E 34 36 39 38 2C 4E 2C 30 37
39 35 36 2E 37 37 39 34 2C 57 2C 32 2C 30 39 2C
30 2E 39 31 2C 32 38 33 2E 35 2C 4D 2C 2D 33 24
47 50 47 47 41 2C 32 30 35 30 33 35 2E 30 30 30
2C 0 
Got: $GPGGA,205034.000,4026.4698,N,07956.7794,W,2,09,0.91,283.5,M,-3$GPGGA,205035.000,
RSSI: -110
Sent a reply
Received: 
24 47 50 47 47 41 2C 32 30 35 30 34 37 2E 30 30
30 2C 34 30 32 36 2E 34 37 32 39 2C 4E 2C 30 37
39 35 36 2E 37 37 39 38 2C 57 2C 32 2C 30 39 2C
30 2E 39 31 2C 32 38 32 2E 37 2C 4D 2C 2D 33 24
47 50 47 47 41 2C 32 30 35 30 34 38 2E 30 30 30
2C 0 
Got: $GPGGA,205047.000,4026.4729,N,07956.7798,W,2,09,0.91,282.7,M,-3$GPGGA,205048.000,
RSSI: -106
Sent a reply
Received: 
24 47 50 47 47 41 2C 32 30 35 31 30 30 2E 30 30
30 2C 34 30 32 36 2E 34 37 34 38 2C 4E 2C 30 37
39 35 36 2E 37 38 30 32 2C 57 2C 32 2C 30 39 2C
30 2E 39 31 2C 32 38 31 2E 34 2C 4D 2C 2D 33 4B
2C 44 2A 33 31 D A 0 35 30 35 36 2E 30 30 30
2C 0 
Got: $GPGGA,205100.000,4026.4748,N,07956.7802,W,2,09,0.91,281.4,M,-3K,D*31

RSSI: -107
Sent a reply
Received: 
24 47 50 47 47 41 2C 32 30 35 31 30 31 2E 30 30
30 2C 34 30 32 36 2E 34 37 34 38 2C 4E 2C 30 37
39 35 36 2E 37 38 30 31 2C 57 2C 32 2C 30 39 2C
30 2E 39 31 2C 32 38 31 2E 33 2C 4D 2C 2D 33 24
47 50 47 47 41 2C 32 30 35 31 30 32 2E 30 30 30
2C 0 
Got: $GPGGA,205101.000,4026.4748,N,07956.7801,W,2,09,0.91,281.3,M,-3$GPGGA,205102.000,
RSSI: -109
Sent a reply
Received: 
24 47 50 47 47 41 2C 32 30 35 31 30 34 2E 30 30
30 2C 34 30 32 36 2E 34 37 35 30 2C 4E 2C 30 37
39 35 36 2E 37 38 30 32 2C 57 2C 32 2C 30 39 2C
30 2E 39 31 2C 32 38 30 2E 39 2C 4D 2C 2D 33 24
47 50 47 47 41 2C 32 30 35 31 30 35 2E 30 30 30
2C 0 
Got: $GPGGA,205104.000,4026.4750,N,07956.7802,W,2,09,0.91,280.9,M,-3$GPGGA,205105.000,
RSSI: -111
Sent a reply
Received: 
24 47 50 47 47 41 2C 32 30 35 31 31 31 2E 30 30
30 2C 34 30 32 36 2E 34 37 35 37 2C 4E 2C 30 37
39 35 36 2E 37 38 30 34 2C 57 2C 32 2C 30 39 2C
30 2E 39 31 2C 32 38 30 2E 36 2C 4D 2C 2D 33 24
47 50 47 47 41 2C 32 30 35 31 31 32 2E 30 30 30
2C 0 
Got: $GPGGA,205111.000,4026.4757,N,07956.7804,W,2,09,0.91,280.6,M,-3$GPGGA,205112.000,
RSSI: -112
Sent a reply
Received: 
24 47 50 47 47 41 2C 32 30 35 31 31 34 2E 30 30
30 2C 34 30 32 36 2E 34 37 35 39 2C 4E 2C 30 37
39 35 36 2E 37 38 30 33 2C 57 2C 32 2C 30 39 2C
30 2E 39 31 2C 32 38 30 2E 34 2C 4D 2C 2D 33 24
47 50 47 47 41 2C 32 30 35 31 31 35 2E 30 30 30
2C 0 
Got: $GPGGA,205114.000,4026.4759,N,07956.7803,W,2,09,0.91,280.4,M,-3$GPGGA,205115.000,
RSSI: -111
Sent a reply
Received: 
24 47 50 47 47 41 2C 32 30 35 31 32 31 2E 30 30
30 2C 34 30 32 36 2E 34 37 36 31 2C 4E 2C 30 37
39 35 36 2E 37 38 30 33 2C 57 2C 32 2C 30 39 2C
30 2E 39 31 2C 32 38 30 2E 30 2C 4D 2C 2D 33 24
47 50 47 47 41 2C 32 30 35 31 32 32 2E 30 30 30
2C 0 
Got: $GPGGA,205121.000,4026.4761,N,07956.7803,W,2,09,0.91,280.0,M,-3$GPGGA,205122.000,
RSSI: -108
Sent a reply
Received: 
24 47 50 47 47 41 2C 32 30 35 31 32 34 2E 30 30
30 2C 34 30 32 36 2E 34 37 36 33 2C 4E 2C 30 37
39 35 36 2E 37 38 30 33 2C 57 2C 32 2C 30 38 2C
31 2E 30 30 2C 32 37 39 2E 39 2C 4D 2C 2D 33 24
47 50 47 47 41 2C 32 30 35 31 32 35 2E 30 30 30
2C 0 
Got: $GPGGA,205124.000,4026.4763,N,07956.7803,W,2,08,1.00,279.9,M,-3$GPGGA,205125.000,
RSSI: -110
Sent a reply
Received: 
24 47 50 47 47 41 2C 32 30 35 31 32 37 2E 30 30
30 2C 34 30 32 36 2E 34 37 36 33 2C 4E 2C 30 37
39 35 36 2E 37 38 30 34 2C 57 2C 32 2C 30 39 2C
30 2E 39 31 2C 32 37 39 2E 38 2C 4D 2C 2D 33 24
47 50 47 47 41 2C 32 30 35 31 32 38 2E 30 30 30
2C 0 
Got: $GPGGA,205127.000,4026.4763,N,07956.7804,W,2,09,0.91,279.8,M,-3$GPGGA,205128.000,
RSSI: -107
Sent a reply
Received: 
24 47 50 47 47 41 2C 32 30 35 31 33 30 2E 30 30
30 2C 34 30 32 36 2E 34 37 36 33 2C 4E 2C 30 37
39 35 36 2E 37 38 30 34 2C 57 2C 32 2C 30 39 2C
30 2E 39 31 2C 32 37 39 2E 37 2C 4D 2C 2D 33 24
47 50 47 47 41 2C 32 30 35 31 33 31 2E 30 30 30
2C 0 
Got: $GPGGA,205130.000,4026.4763,N,07956.7804,W,2,09,0.91,279.7,M,-3$GPGGA,205131.000,
RSSI: -106
Sent a reply
Received: 
24 47 50 47 47 41 2C 32 30 35 31 33 37 2E 30 30
30 2C 34 30 32 36 2E 34 37 33 34 2C 4E 2C 30 37
39 35 36 2E 37 38 31 38 2C 57 2C 32 2C 30 39 2C
30 2E 39 31 2C 32 37 39 2E 35 2C 4D 2C 2D 33 24
47 50 47 47 41 2C 32 30 35 31 33 38 2E 30 30 30
2C 0 
Got: $GPGGA,205137.000,4026.4734,N,07956.7818,W,2,09,0.91,279.5,M,-3$GPGGA,205138.000,
RSSI: -105
Sent a reply
Received: 
24 47 50 47 47 41 2C 32 30 35 31 34 30 2E 30 30
30 2C 34 30 32 36 2E 34 37 32 37 2C 4E 2C 30 37
39 35 36 2E 37 38 32 36 2C 57 2C 32 2C 30 39 2C
30 2E 39 31 2C 32 37 38 2E 36 2C 4D 2C 2D 33 24
47 50 47 47 41 2C 32 30 35 31 34 31 2E 30 30 30
2C 0 
Got: $GPGGA,205140.000,4026.4727,N,07956.7826,W,2,09,0.91,278.6,M,-3$GPGGA,205141.000,
RSSI: -108
Sent a reply
Received: 
24 47 50 47 47 41 2C 32 30 35 31 34 33 2E 30 30
30 2C 34 30 32 36 2E 34 37 32 36 2C 4E 2C 30 37
39 35 36 2E 37 38 32 39 2C 57 2C 32 2C 30 39 2C
30 2E 39 31 2C 32 37 38 2E 36 2C 4D 2C 2D 33 24
47 50 47 47 41 2C 32 30 35 31 34 34 2E 30 30 30
2C 0 
Got: $GPGGA,205143.000,4026.4726,N,07956.7829,W,2,09,0.91,278.6,M,-3$GPGGA,205144.000,
RSSI: -112
Sent a reply
Received: 
24 47 50 47 47 41 2C 32 30 35 31 34 36 2E 30 30
30 2C 34 30 32 36 2E 34 37 32 38 2C 4E 2C 30 37
39 35 36 2E 37 38 33 34 2C 57 2C 32 2C 30 39 2C
30 2E 39 31 2C 32 37 38 2E 37 2C 4D 2C 2D 33 24
47 50 47 47 41 2C 32 30 35 31 34 37 2E 30 30 30
2C 0 
Got: $GPGGA,205146.000,4026.4728,N,07956.7834,W,2,09,0.91,278.7,M,-3$GPGGA,205147.000,
RSSI: -110
Sent a reply
Received: 
24 47 50 47 47 41 2C 32 30 35 31 34 39 2E 30 30
30 2C 34 30 32 36 2E 34 37 32 39 2C 4E 2C 30 37
39 35 36 2E 37 38 34 31 2C 57 2C 32 2C 30 38 2C
30 2E 39 37 2C 32 37 38 2E 37 2C 4D 2C 2D 33 24
47 50 47 47 41 2C 32 30 35 31 35 30 2E 30 30 30
2C 0 
Got: $GPGGA,205149.000,4026.4729,N,07956.7841,W,2,08,0.97,278.7,M,-3$GPGGA,205150.000,
RSSI: -109
Sent a reply
Received: 
24 47 50 47 47 41 2C 32 30 35 31 35 32 2E 30 30
30 2C 34 30 32 36 2E 34 37 32 37 2C 4E 2C 30 37
39 35 36 2E 37 38 34 35 2C 57 2C 32 2C 30 39 2C
30 2E 39 31 2C 32 37 38 2E 38 2C 4D 2C 2D 33 24
47 50 47 47 41 2C 32 30 35 31 35 33 2E 30 30 30
2C 0 
Got: $GPGGA,205152.000,4026.4727,N,07956.7845,W,2,09,0.91,278.8,M,-3$GPGGA,205153.000,
RSSI: -110
Sent a reply
Received: 
24 47 50 47 47 41 2C 32 30 35 31 35 35 2E 30 30
30 2C 34 30 32 36 2E 34 37 32 35 2C 4E 2C 30 37
39 35 36 2E 37 38 34 39 2C 57 2C 32 2C 30 38 2C
30 2E 39 37 2C 32 37 38 2E 38 2C 4D 2C 2D 33 24
47 50 47 47 41 2C 32 30 35 31 35 36 2E 30 30 30
2C 0 
Got: $GPGGA,205155.000,4026.4725,N,07956.7849,W,2,08,0.97,278.8,M,-3$GPGGA,205156.000,
RSSI: -109
Sent a reply
Received: 
24 47 50 47 47 41 2C 32 30 35 31 35 38 2E 30 30
30 2C 34 30 32 36 2E 34 37 32 33 2C 4E 2C 30 37
39 35 36 2E 37 38 35 30 2C 57 2C 32 2C 30 39 2C
30 2E 39 31 2C 32 37 39 2E 33 2C 4D 2C 2D 33 24
47 50 47 47 41 2C 32 30 35 31 35 39 2E 30 30 30
2C 0 
Got: $GPGGA,205158.000,4026.4723,N,07956.7850,W,2,09,0.91,279.3,M,-3$GPGGA,205159.000,
RSSI: -105
Sent a reply
Received: 
24 47 50 47 47 41 2C 32 30 35 32 30 31 2E 30 30
30 2C 34 30 32 36 2E 34 37 32 32 2C 4E 2C 30 37
39 35 36 2E 37 38 35 33 2C 57 2C 32 2C 31 30 2C
30 2E 38 33 2C 32 37 39 2E 35 2C 4D 2C 2D 33 24
47 50 47 47 41 2C 32 30 35 32 30 32 2E 30 30 30
2C 0 
Got: $GPGGA,205201.000,4026.4722,N,07956.7853,W,2,10,0.83,279.5,M,-3$GPGGA,205202.000,
RSSI: -110
Sent a reply
Received: 
24 47 50 47 47 41 2C 32 30 35 32 30 34 2E 30 30
30 2C 34 30 32 36 2E 34 37 32 32 2C 4E 2C 30 37
39 35 36 2E 37 38 35 35 2C 57 2C 32 2C 31 30 2C
30 2E 38 33 2C 32 37 39 2E 35 2C 4D 2C 2D 33 24
47 50 47 47 41 2C 32 30 35 32 30 35 2E 30 30 30
2C 0 
Got: $GPGGA,205204.000,4026.4722,N,07956.7855,W,2,10,0.83,279.5,M,-3$GPGGA,205205.000,
RSSI: -108
Sent a reply
Received: 
24 47 50 47 47 41 2C 32 30 35 32 30 37 2E 30 30
30 2C 34 30 32 36 2E 34 37 32 31 2C 4E 2C 30 37
39 35 36 2E 37 38 35 37 2C 57 2C 32 2C 31 30 2C
30 2E 38 33 2C 32 37 39 2E 35 2C 4D 2C 2D 33 24
47 50 47 47 41 2C 32 30 35 32 30 38 2E 30 30 30
2C 0 
Got: $GPGGA,205207.000,4026.4721,N,07956.7857,W,2,10,0.83,279.5,M,-3$GPGGA,205208.000,
RSSI: -99
Sent a reply
Received: 
24 47 50 47 47 41 2C 32 30 35 32 31 30 2E 30 30
30 2C 34 30 32 36 2E 34 37 31 39 2C 4E 2C 30 37
39 35 36 2E 37 38 35 38 2C 57 2C 32 2C 31 30 2C
30 2E 38 33 2C 32 37 39 2E 35 2C 4D 2C 2D 33 24
47 50 47 47 41 2C 32 30 35 32 31 31 2E 30 30 30
2C 0 
Got: $GPGGA,205210.000,4026.4719,N,07956.7858,W,2,10,0.83,279.5,M,-3$GPGGA,205211.000,
RSSI: -105
Sent a reply
Received: 
24 47 50 47 47 41 2C 32 30 35 32 31 37 2E 30 30
30 2C 34 30 32 36 2E 34 37 31 39 2C 4E 2C 30 37
39 35 36 2E 37 38 36 32 2C 57 2C 32 2C 31 30 2C
30 2E 38 33 2C 32 37 39 2E 35 2C 4D 2C 2D 33 24
47 50 47 47 41 2C 32 30 35 32 31 38 2E 30 30 30
2C 0 
Got: $GPGGA,205217.000,4026.4719,N,07956.7862,W,2,10,0.83,279.5,M,-3$GPGGA,205218.000,
RSSI: -106
Sent a reply
Received: 
24 47 50 47 47 41 2C 32 30 35 32 32 30 2E 30 30
30 2C 34 30 32 36 2E 34 37 32 31 2C 4E 2C 30 37
39 35 36 2E 37 38 36 36 2C 57 2C 32 2C 31 30 2C
30 2E 38 33 2C 32 37 39 2E 35 2C 4D 2C 2D 33 24
47 50 47 47 41 2C 32 30 35 32 32 31 2E 30 30 30
2C 0 
Got: $GPGGA,205220.000,4026.4721,N,07956.7866,W,2,10,0.83,279.5,M,-3$GPGGA,205221.000,
RSSI: -105
Sent a reply
Received: 
24 47 50 47 47 41 2C 32 30 35 32 32 33 2E 30 30
30 2C 34 30 32 36 2E 34 37 32 34 2C 4E 2C 30 37
39 35 36 2E 37 38 36 39 2C 57 2C 32 2C 31 30 2C
30 2E 38 33 2C 32 37 39 2E 35 2C 4D 2C 2D 33 33
31 32 2C 31 37 2C 30 31 2C 32 30 2C 32 39 32 2C
31 0 
Got: $GPGGA,205223.000,4026.4724,N,07956.7869,W,2,10,0.83,279.5,M,-3312,17,01,20,292,1
RSSI: -105
Sent a reply
Received: 
24 47 50 47 47 41 2C 32 30 35 32 33 35 2E 30 30
30 2C 34 30 32 36 2E 34 37 32 36 2C 4E 2C 30 37
39 35 36 2E 37 38 37 31 2C 57 2C 32 2C 31 30 2C
30 2E 38 33 2C 32 37 39 2E 35 2C 4D 2C 2D 33 32
36 2C 33 31 2C 30 31 2C 33 32 2C 31 34 2C 31 30
2C 0 
Got: $GPGGA,205235.000,4026.4726,N,07956.7871,W,2,10,0.83,279.5,M,-326,31,01,32,14,10,
RSSI: -108
Sent a reply
Received: 
24 47 50 47 47 41 2C 32 30 35 32 35 33 2E 30 30
30 2C 34 30 32 36 2E 34 37 32 39 2C 4E 2C 30 37
39 35 36 2E 37 38 38 30 2C 57 2C 32 2C 31 30 2C
30 2E 38 33 2C 32 37 39 2E 35 2C 4D 2C 2D 33 32
2C 31 39 2C 30 34 33 2C 33 31 2A 37 44 D A 24
47 0 
Got: $GPGGA,205253.000,4026.4729,N,07956.7880,W,2,10,0.83,279.5,M,-32,19,043,31*7D
$G
RSSI: -105
Sent a reply
Received: 
24 47 50 47 47 41 2C 32 30 35 33 30 30 2E 30 30
30 2C 34 30 32 36 2E 34 37 32 31 2C 4E 2C 30 37
39 35 36 2E 37 38 38 30 2C 57 2C 32 2C 31 30 2C
30 2E 38 33 2C 32 37 39 2E 35 2C 4D 2C 2D 33 24
47 50 47 47 41 2C 32 30 35 33 30 31 2E 30 30 30
2C 0 
Got: $GPGGA,205300.000,4026.4721,N,07956.7880,W,2,10,0.83,279.5,M,-3$GPGGA,205301.000,
RSSI: -109
Sent a reply
Received: 
24 47 50 47 47 41 2C 32 30 35 33 30 33 2E 30 30
30 2C 34 30 32 36 2E 34 37 30 35 2C 4E 2C 30 37
39 35 36 2E 37 38 38 30 2C 57 2C 32 2C 31 30 2C
30 2E 38 33 2C 32 37 39 2E 33 2C 4D 2C 2D 33 24
47 50 47 47 41 2C 32 30 35 33 30 34 2E 30 30 30
2C 0 
Got: $GPGGA,205303.000,4026.4705,N,07956.7880,W,2,10,0.83,279.3,M,-3$GPGGA,205304.000,
RSSI: -111
Sent a reply
Received: 
24 47 50 47 47 41 2C 32 30 35 33 32 31 2E 30 30
30 2C 34 30 32 36 2E 34 35 36 34 2C 4E 2C 30 37
39 35 36 2E 37 38 36 33 2C 57 2C 32 2C 31 30 2C
30 2E 38 33 2C 32 37 38 2E 31 2C 4D 2C 2D 33 24
47 50 47 47 41 2C 32 30 35 33 32 32 2E 30 30 30
2C 0 
Got: $GPGGA,205321.000,4026.4564,N,07956.7863,W,2,10,0.83,278.1,M,-3$GPGGA,205322.000,
RSSI: -110
Sent a reply
Received: 
24 47 50 47 47 41 2C 32 30 35 33 32 34 2E 30 30
30 2C 34 30 32 36 2E 34 35 34 33 2C 4E 2C 30 37
39 35 36 2E 37 38 37 31 2C 57 2C 32 2C 31 30 2C
30 2E 38 33 2C 32 37 38 2E 30 2C 4D 2C 2D 33 24
47 50 47 47 41 2C 32 30 35 33 32 35 2E 30 30 30
2C 0 
Got: $GPGGA,205324.000,4026.4543,N,07956.7871,W,2,10,0.83,278.0,M,-3$GPGGA,205325.000,
RSSI: -108
Sent a reply
Received: 
24 47 50 47 47 41 2C 32 30 35 33 32 37 2E 30 30
30 2C 34 30 32 36 2E 34 35 32 35 2C 4E 2C 30 37
39 35 36 2E 37 38 37 36 2C 57 2C 32 2C 31 30 2C
30 2E 38 33 2C 32 37 37 2E 39 2C 4D 2C 2D 33 24
47 50 47 47 41 2C 32 30 35 33 32 38 2E 30 30 30
2C 0 
Got: $GPGGA,205327.000,4026.4525,N,07956.7876,W,2,10,0.83,277.9,M,-3$GPGGA,205328.000,
RSSI: -108
Sent a reply
Received: 
24 47 50 47 47 41 2C 32 30 35 33 33 30 2E 30 30
30 2C 34 30 32 36 2E 34 35 30 32 2C 4E 2C 30 37
39 35 36 2E 37 38 37 38 2C 57 2C 32 2C 31 30 2C
30 2E 38 33 2C 32 37 37 2E 39 2C 4D 2C 2D 33 24
47 50 47 47 41 2C 32 30 35 33 33 31 2E 30 30 30
2C 0 
Got: $GPGGA,205330.000,4026.4502,N,07956.7878,W,2,10,0.83,277.9,M,-3$GPGGA,205331.000,
RSSI: -107
Sent a reply
Received: 
24 47 50 47 47 41 2C 32 30 35 33 34 32 2E 30 30
30 2C 34 30 32 36 2E 34 34 31 32 2C 4E 2C 30 37
39 35 36 2E 37 38 37 39 2C 57 2C 32 2C 31 30 2C
30 2E 38 33 2C 32 37 38 2E 35 2C 4D 2C 2D 33 A
0 50 47 47 41 2C 32 30 35 33 33 38 2E 30 30 30
2C 0 
Got: $GPGGA,205342.000,4026.4412,N,07956.7879,W,2,10,0.83,278.5,M,-3

RSSI: -104
Sent a reply
Received: 
24 47 50 47 47 41 2C 32 30 35 33 35 31 2E 30 30
30 2C 34 30 32 36 2E 34 33 35 30 2C 4E 2C 30 37
39 35 36 2E 37 38 37 38 2C 57 2C 32 2C 31 30 2C
30 2E 38 33 2C 32 37 39 2E 39 2C 4D 2C 2D 33 2C
4B 2C 44 2A 33 45 D A 0 33 34 38 2E 30 30 30
2C 0 
Got: $GPGGA,205351.000,4026.4350,N,07956.7878,W,2,10,0.83,279.9,M,-3,K,D*3E

RSSI: -102
Sent a reply
Received: 
24 47 50 47 47 41 2C 32 30 35 33 35 32 2E 30 30
30 2C 34 30 32 36 2E 34 33 34 32 2C 4E 2C 30 37
39 35 36 2E 37 38 37 38 2C 57 2C 32 2C 31 30 2C
30 2E 38 33 2C 32 38 30 2E 30 2C 4D 2C 2D 33 24
47 50 47 47 41 2C 32 30 35 33 35 33 2E 30 30 30
2C 0 
Got: $GPGGA,205352.000,4026.4342,N,07956.7878,W,2,10,0.83,280.0,M,-3$GPGGA,205353.000,
RSSI: -106
Sent a reply
Received: 
24 47 50 47 47 41 2C 32 30 35 33 35 35 2E 30 30
30 2C 34 30 32 36 2E 34 33 32 31 2C 4E 2C 30 37
39 35 36 2E 37 38 37 39 2C 57 2C 32 2C 31 30 2C
30 2E 38 33 2C 32 38 30 2E 30 2C 4D 2C 2D 33 24
47 50 47 47 41 2C 32 30 35 33 35 36 2E 30 30 30
2C 0 
Got: $GPGGA,205355.000,4026.4321,N,07956.7879,W,2,10,0.83,280.0,M,-3$GPGGA,205356.000,
RSSI: -107
Sent a reply
Received: 
24 47 50 47 47 41 2C 32 30 35 33 35 38 2E 30 30
30 2C 34 30 32 36 2E 34 33 30 30 2C 4E 2C 30 37
39 35 36 2E 37 38 38 31 2C 57 2C 32 2C 31 30 2C
30 2E 38 33 2C 32 38 30 2E 33 2C 4D 2C 2D 33 24
47 50 47 47 41 2C 32 30 35 33 35 39 2E 30 30 30
2C 0 
Got: $GPGGA,205358.000,4026.4300,N,07956.7881,W,2,10,0.83,280.3,M,-3$GPGGA,205359.000,
RSSI: -107
Sent a reply
Received: 
24 47 50 47 47 41 2C 32 30 35 34 30 35 2E 30 30
30 2C 34 30 32 36 2E 34 32 35 30 2C 4E 2C 30 37
39 35 36 2E 37 38 37 38 2C 57 2C 32 2C 31 30 2C
30 2E 38 33 2C 32 38 30 2E 37 2C 4D 2C 2D 33 24
47 50 47 47 41 2C 32 30 35 34 30 36 2E 30 30 30
2C 0 
Got: $GPGGA,205405.000,4026.4250,N,07956.7878,W,2,10,0.83,280.7,M,-3$GPGGA,205406.000,
RSSI: -96
Sent a reply
Received: 
24 47 50 47 47 41 2C 32 30 35 34 30 38 2E 30 30
30 2C 34 30 32 36 2E 34 32 33 32 2C 4E 2C 30 37
39 35 36 2E 37 38 37 38 2C 57 2C 32 2C 31 30 2C
30 2E 38 33 2C 32 38 30 2E 37 2C 4D 2C 2D 33 24
47 50 47 47 41 2C 32 30 35 34 30 39 2E 30 30 30
2C 0 
Got: $GPGGA,205408.000,4026.4232,N,07956.7878,W,2,10,0.83,280.7,M,-3$GPGGA,205409.000,
RSSI: -96
Sent a reply
Received: 
24 47 50 47 47 41 2C 32 30 35 34 31 31 2E 30 30
30 2C 34 30 32 36 2E 34 32 31 33 2C 4E 2C 30 37
39 35 36 2E 37 38 37 37 2C 57 2C 32 2C 31 30 2C
30 2E 38 33 2C 32 38 30 2E 39 2C 4D 2C 2D 33 24
47 50 47 47 41 2C 32 30 35 34 31 32 2E 30 30 30
2C 0 
Got: $GPGGA,205411.000,4026.4213,N,07956.7877,W,2,10,0.83,280.9,M,-3$GPGGA,205412.000,
RSSI: -96
Sent a reply
Received: 
24 47 50 47 47 41 2C 32 30 35 34 31 34 2E 30 30
30 2C 34 30 32 36 2E 34 31 39 32 2C 4E 2C 30 37
39 35 36 2E 37 38 37 36 2C 57 2C 32 2C 31 30 2C
30 2E 38 33 2C 32 38 30 2E 39 2C 4D 2C 2D 33 24
47 50 47 47 41 2C 32 30 35 34 31 35 2E 30 30 30
2C 0 
Got: $GPGGA,205414.000,4026.4192,N,07956.7876,W,2,10,0.83,280.9,M,-3$GPGGA,205415.000,
RSSI: -97
Sent a reply
Received: 
24 47 50 47 47 41 2C 32 30 35 34 31 37 2E 30 30
30 2C 34 30 32 36 2E 34 31 37 34 2C 4E 2C 30 37
39 35 36 2E 37 38 37 34 2C 57 2C 32 2C 31 30 2C
30 2E 38 33 2C 32 38 30 2E 39 2C 4D 2C 2D 33 24
47 50 47 47 41 2C 32 30 35 34 31 38 2E 30 30 30
2C 0 
Got: $GPGGA,205417.000,4026.4174,N,07956.7874,W,2,10,0.83,280.9,M,-3$GPGGA,205418.000,
RSSI: -98
Sent a reply
Received: 
24 47 50 47 47 41 2C 32 30 35 34 32 30 2E 30 30
30 2C 34 30 32 36 2E 34 31 35 33 2C 4E 2C 30 37
39 35 36 2E 37 38 37 32 2C 57 2C 32 2C 31 30 2C
30 2E 38 33 2C 32 38 31 2E 30 2C 4D 2C 2D 33 24
47 50 47 47 41 2C 32 30 35 34 32 31 2E 30 30 30
2C 0 
Got: $GPGGA,205420.000,4026.4153,N,07956.7872,W,2,10,0.83,281.0,M,-3$GPGGA,205421.000,
RSSI: -105
Sent a reply
Received: 
24 47 50 47 47 41 2C 32 30 35 34 32 33 2E 30 30
30 2C 34 30 32 36 2E 34 31 33 30 2C 4E 2C 30 37
39 35 36 2E 37 38 37 30 2C 57 2C 32 2C 31 30 2C
30 2E 38 33 2C 32 38 31 2E 30 2C 4D 2C 2D 33 24
47 50 47 47 41 2C 32 30 35 34 32 34 2E 30 30 30
2C 0 
Got: $GPGGA,205423.000,4026.4130,N,07956.7870,W,2,10,0.83,281.0,M,-3$GPGGA,205424.000,
RSSI: -104
Sent a reply
Received: 
24 47 50 47 47 41 2C 32 30 35 34 32 36 2E 30 30
30 2C 34 30 32 36 2E 34 31 30 35 2C 4E 2C 30 37
39 35 36 2E 37 38 36 36 2C 57 2C 32 2C 31 30 2C
30 2E 38 33 2C 32 38 30 2E 38 2C 4D 2C 2D 33 24
47 50 47 47 41 2C 32 30 35 34 32 37 2E 30 30 30
2C 0 
Got: $GPGGA,205426.000,4026.4105,N,07956.7866,W,2,10,0.83,280.8,M,-3$GPGGA,205427.000,
RSSI: -104
Sent a reply
Received: 
24 47 50 47 47 41 2C 32 30 35 34 32 39 2E 30 30
30 2C 34 30 32 36 2E 34 30 38 34 2C 4E 2C 30 37
39 35 36 2E 37 38 36 35 2C 57 2C 32 2C 31 30 2C
30 2E 38 33 2C 32 38 30 2E 38 2C 4D 2C 2D 33 24
47 50 47 47 41 2C 32 30 35 34 33 30 2E 30 30 30
2C 0 
Got: $GPGGA,205429.000,4026.4084,N,07956.7865,W,2,10,0.83,280.8,M,-3$GPGGA,205430.000,
RSSI: -93
Sent a reply
Received: 
24 47 50 47 47 41 2C 32 30 35 34 33 32 2E 30 30
30 2C 34 30 32 36 2E 34 30 36 33 2C 4E 2C 30 37
39 35 36 2E 37 38 36 36 2C 57 2C 32 2C 31 30 2C
30 2E 38 33 2C 32 38 30 2E 38 2C 4D 2C 2D 33 24
47 50 47 47 41 2C 32 30 35 34 33 33 2E 30 30 30
2C 0 
Got: $GPGGA,205432.000,4026.4063,N,07956.7866,W,2,10,0.83,280.8,M,-3$GPGGA,205433.000,
RSSI: -95
Sent a reply
Received: 
24 47 50 47 47 41 2C 32 30 35 34 33 35 2E 30 30
30 2C 34 30 32 36 2E 34 30 34 32 2C 4E 2C 30 37
39 35 36 2E 37 38 36 37 2C 57 2C 32 2C 31 30 2C
30 2E 38 33 2C 32 38 30 2E 39 2C 4D 2C 2D 33 24
47 50 47 47 41 2C 32 30 35 34 33 36 2E 30 30 30
2C 0 
Got: $GPGGA,205435.000,4026.4042,N,07956.7867,W,2,10,0.83,280.9,M,-3$GPGGA,205436.000,
RSSI: -91
Sent a reply
Received: 
24 47 50 47 47 41 2C 32 30 35 34 33 38 2E 30 30
30 2C 34 30 32 36 2E 34 30 31 36 2C 4E 2C 30 37
39 35 36 2E 37 38 36 36 2C 57 2C 32 2C 31 30 2C
30 2E 38 33 2C 32 38 31 2E 34 2C 4D 2C 2D 33 24
47 50 47 47 41 2C 32 30 35 34 33 39 2E 30 30 30
2C 0 
Got: $GPGGA,205438.000,4026.4016,N,07956.7866,W,2,10,0.83,281.4,M,-3$GPGGA,205439.000,
RSSI: -96
Sent a reply
Received: 
24 47 50 47 47 41 2C 32 30 35 34 34 31 2E 30 30
30 2C 34 30 32 36 2E 33 39 39 35 2C 4E 2C 30 37
39 35 36 2E 37 38 36 37 2C 57 2C 32 2C 31 30 2C
30 2E 38 33 2C 32 38 31 2E 37 2C 4D 2C 2D 33 24
47 50 47 47 41 2C 32 30 35 34 34 32 2E 30 30 30
2C 0 
Got: $GPGGA,205441.000,4026.3995,N,07956.7867,W,2,10,0.83,281.7,M,-3$GPGGA,205442.000,
RSSI: -93
Sent a reply
Received: 
24 47 50 47 47 41 2C 32 30 35 34 34 34 2E 30 30
30 2C 34 30 32 36 2E 33 39 37 34 2C 4E 2C 30 37
39 35 36 2E 37 38 35 37 2C 57 2C 32 2C 31 30 2C
30 2E 38 33 2C 32 38 31 2E 39 2C 4D 2C 2D 33 24
47 50 47 47 41 2C 32 30 35 34 34 35 2E 30 30 30
2C 0 
Got: $GPGGA,205444.000,4026.3974,N,07956.7857,W,2,10,0.83,281.9,M,-3$GPGGA,205445.000,
RSSI: -88
Sent a reply
Received: 
24 47 50 47 47 41 2C 32 30 35 34 34 37 2E 30 30
30 2C 34 30 32 36 2E 33 39 35 32 2C 4E 2C 30 37
39 35 36 2E 37 38 35 31 2C 57 2C 32 2C 31 30 2C
30 2E 38 33 2C 32 38 32 2E 31 2C 4D 2C 2D 33 24
47 50 47 47 41 2C 32 30 35 34 34 38 2E 30 30 30
2C 0 
Got: $GPGGA,205447.000,4026.3952,N,07956.7851,W,2,10,0.83,282.1,M,-3$GPGGA,205448.000,
RSSI: -82
Sent a reply
Received: 
24 47 50 47 47 41 2C 32 30 35 34 35 30 2E 30 30
30 2C 34 30 32 36 2E 33 39 33 35 2C 4E 2C 30 37
39 35 36 2E 37 38 34 34 2C 57 2C 32 2C 31 30 2C
30 2E 38 33 2C 32 38 32 2E 35 2C 4D 2C 2D 33 24
47 50 47 47 41 2C 32 30 35 34 35 31 2E 30 30 30
2C 0 
Got: $GPGGA,205450.000,4026.3935,N,07956.7844,W,2,10,0.83,282.5,M,-3$GPGGA,205451.000,
RSSI: -81
Sent a reply
Received: 
24 47 50 47 47 41 2C 32 30 35 34 35 33 2E 30 30
30 2C 34 30 32 36 2E 33 39 31 37 2C 4E 2C 30 37
39 35 36 2E 37 38 33 39 2C 57 2C 32 2C 31 30 2C
30 2E 38 33 2C 32 38 32 2E 37 2C 4D 2C 2D 33 24
47 50 47 47 41 2C 32 30 35 34 35 34 2E 30 30 30
2C 0 
Got: $GPGGA,205453.000,4026.3917,N,07956.7839,W,2,10,0.83,282.7,M,-3$GPGGA,205454.000,
RSSI: -73
Sent a reply
Received: 
24 47 50 47 47 41 2C 32 30 35 34 35 36 2E 30 30
30 2C 34 30 32 36 2E 33 38 39 39 2C 4E 2C 30 37
39 35 36 2E 37 38 32 37 2C 57 2C 32 2C 31 30 2C
30 2E 38 33 2C 32 38 33 2E 34 2C 4D 2C 2D 33 24
47 50 47 47 41 2C 32 30 35 34 35 37 2E 30 30 30
2C 0 
Got: $GPGGA,205456.000,4026.3899,N,07956.7827,W,2,10,0.83,283.4,M,-3$GPGGA,205457.000,
RSSI: -68
Sent a reply
Received: 
24 47 50 47 47 41 2C 32 30 35 34 35 39 2E 30 30
30 2C 34 30 32 36 2E 33 38 38 33 2C 4E 2C 30 37
39 35 36 2E 37 38 31 32 2C 57 2C 32 2C 31 30 2C
30 2E 38 33 2C 32 38 34 2E 31 2C 4D 2C 2D 33 24
47 50 47 47 41 2C 32 30 35 35 30 30 2E 30 30 30
2C 0 
Got: $GPGGA,205459.000,4026.3883,N,07956.7812,W,2,10,0.83,284.1,M,-3$GPGGA,205500.000,
RSSI: -64
Sent a reply
Received: 
24 47 50 47 47 41 2C 32 30 35 35 30 32 2E 30 30
30 2C 34 30 32 36 2E 33 38 37 35 2C 4E 2C 30 37
39 35 36 2E 37 38 30 36 2C 57 2C 32 2C 31 30 2C
30 2E 38 33 2C 32 38 34 2E 34 2C 4D 2C 2D 33 24
47 50 47 47 41 2C 32 30 35 35 30 33 2E 30 30 30
2C 0 
Got: $GPGGA,205502.000,4026.3875,N,07956.7806,W,2,10,0.83,284.4,M,-3$GPGGA,205503.000,
RSSI: -64
Sent a reply
Received: 
24 47 50 47 47 41 2C 32 30 35 35 30 35 2E 30 30
30 2C 34 30 32 36 2E 33 38 37 32 2C 4E 2C 30 37
39 35 36 2E 37 38 30 36 2C 57 2C 32 2C 31 30 2C
30 2E 38 33 2C 32 38 34 2E 31 2C 4D 2C 2D 33 24
47 50 47 47 41 2C 32 30 35 35 30 36 2E 30 30 30
2C 0 
Got: $GPGGA,205505.000,4026.3872,N,07956.7806,W,2,10,0.83,284.1,M,-3$GPGGA,205506.000,
RSSI: -61
Sent a reply
Received: 
24 47 50 47 47 41 2C 32 30 35 35 30 38 2E 30 30
30 2C 34 30 32 36 2E 33 38 37 30 2C 4E 2C 30 37
39 35 36 2E 37 38 30 32 2C 57 2C 32 2C 31 30 2C
30 2E 38 33 2C 32 38 34 2E 32 2C 4D 2C 2D 33 24
47 50 47 47 41 2C 32 30 35 35 30 39 2E 30 30 30
2C 0 
Got: $GPGGA,205508.000,4026.3870,N,07956.7802,W,2,10,0.83,284.2,M,-3$GPGGA,205509.000,
RSSI: -72
Sent a reply
Received: 
24 47 50 47 47 41 2C 32 30 35 35 31 31 2E 30 30
30 2C 34 30 32 36 2E 33 38 36 38 2C 4E 2C 30 37
39 35 36 2E 37 38 30 31 2C 57 2C 32 2C 31 30 2C
30 2E 38 33 2C 32 38 34 2E 32 2C 4D 2C 2D 33 24
47 50 47 47 41 2C 32 30 35 35 31 32 2E 30 30 30
2C 0 
Got: $GPGGA,205511.000,4026.3868,N,07956.7801,W,2,10,0.83,284.2,M,-3$GPGGA,205512.000,
RSSI: -66
Sent a reply
Received: 
24 47 50 47 47 41 2C 32 30 35 35 31 34 2E 30 30
30 2C 34 30 32 36 2E 33 38 37 30 2C 4E 2C 30 37
39 35 36 2E 37 38 30 31 2C 57 2C 32 2C 31 30 2C
30 2E 38 33 2C 32 38 34 2E 33 2C 4D 2C 2D 33 24
47 50 47 47 41 2C 32 30 35 35 31 35 2E 30 30 30
2C 0 
Got: $GPGGA,205514.000,4026.3870,N,07956.7801,W,2,10,0.83,284.3,M,-3$GPGGA,205515.000,
RSSI: -64
Sent a reply
Received: 
24 47 50 47 47 41 2C 32 30 35 35 31 37 2E 30 30
30 2C 34 30 32 36 2E 33 38 37 31 2C 4E 2C 30 37
39 35 36 2E 37 37 39 39 2C 57 2C 32 2C 31 30 2C
30 2E 38 33 2C 32 38 34 2E 33 2C 4D 2C 2D 33 24
47 50 47 47 41 2C 32 30 35 35 31 38 2E 30 30 30
2C 0 
Got: $GPGGA,205517.000,4026.3871,N,07956.7799,W,2,10,0.83,284.3,M,-3$GPGGA,205518.000,
RSSI: -63
Sent a reply
