Test number(s): 1-15
Test description: flatter range in schenely
Latitude: 39.9925
Longitude: -75.1415

Arduino LoRa RX Test!
LoRa radio init OK!
Set Freq to: 433.00
Received: 
24 47 50 47 47 41 2C 31 39 35 34 34 33 2E 30 30
30 2C 34 30 32 36 2E 34 31 38 30 2C 4E 2C 30 37
39 35 36 2E 36 38 32 32 2C 57 2C 32 2C 30 39 2C
30 2E 39 32 2C 32 38 36 2E 32 2C 4D 2C 2D 33 24
47 50 47 47 41 2C 31 39 35 34 34 34 2E 30 30 30
2C 0 
Got: $GPGGA,195443.000,4026.4180,N,07956.6822,W,2,09,0.92,286.2,M,-3$GPGGA,195444.000,
RSSI: -67
Sent a reply
Received:  34 34 36 2E 30 38 30 2C 4E 2C 30 37
39 35 3631 30 2C
30 2E 38 37 2C 32 38 36 2E 32 2C 4D 2C 2D 33 24
47 50 47 47 41 2C 31 39 35 34 34 2C 0 
Got: $GP6.6822,W,2,10,0.87,286.2,M,-3$G
RSSI: -64
SeReceived: 
2 2C 31 39 35 34 36 2E 34 31 37 39 2C 4E 2C 30  36 38 32 32 2C 32 2C 32 38 36 D 33 24
47 50 47 47 41 2C 31 E 30 30 30
2C 195449.000,4026.4179,N,07956.68286.2,M,-3$GPGGa reply
0 47 47 41 2C 31 2E 30 30
30 2 4E 2C 30 37
39 32 31 2C 57 2C 32 2C 31 30 2C
2C 4D 2C 2D 33 241 2C 31 39 35 0 30
2C 0 
Go.000,4026.4178,,10,0.87,286.3,M,-3$GPGGA,195453.000,
RSSI: -
C 31 39 35 34 35 35 2E 30 30
3 2C 4E 2C 30 37 38 32 35 2C 57 2C 32 2C 31 30  2C 32 38 36 2E 34 2C 4D 2C 2D  47 41 2C 31 39 30 30 30
2C 0 
79,N,07956.6825,W,2,10,0.87,286.4,M,-3$GPGGA,1I: -73
Sent a reply
ed: 
24 47 50 9 35 34 35 38 234 30 32 36 2E 35 36 2E 36 38 3 2C 31 30 2C
30 2E 38 37 2C 32 38 36 2E 31 2C 4D 2C 2D 33 24
 2C 31 39 35 34 35 39 2E 30 30 30
2C 0 
Got:00,4026.4178,N,0,0.87,286.1,M,-3$GPGGA,195459.
Sent a reply
Rece 47 47 41 2C 31 34 30 32 36 2E4E 2C 30 37
3932 2C 31 30 2C
32 38 35 2E 39 2C 4D 2C 2D 33 24
47 50 47 47 41 2C 31 39 35 35 30 32 2E 30 30 30
2C 0 
Got.000,4026.4180,N,-3$GPGGA,19550
 
24 47 50 47 45 35 30 34 2E 300 32 36 2E 34 31 37 39 2C 4E 2C 30 37
39 35 36 2C 57 2C 32 2C 38 37 2C 32 382C 2D 33 24
47GGA,195504.000,6.6860,W,2,10,0PGGA,195505.000nt a reply
 31 39 35 35 30 2C 34 30 32 362C 4E 2C 30 37
39 35 36 2E 362C
30 2E 38 37 2C 32 38 35 2E 0 30 30
2C 0 
507.000,4026.4180,N,07956.6879,W,2,10,0.87,2855508.000,
RSSIply
4 47 50 47 47 4 31 30 2E 30 302 36 2E 34 31 38 33 2C 4E 2C 30 36 39 30 31 2C30 2C
30 2E 38 37 2C 32 38 35 2E 39 2C 4D 2C 2E 30 30 30
2C .4183,N,07956.6a reply
Received: 
24 47 50 47 4730 32 36 2E 34 36 2E 36 39 32 3 31 30 2C
30 2 36 2E 32 2C 4D 2C 2D 33 24
47 50 47 47 41 2C 31 39 35 35 31 34 2E 30 30 30
PGGA,195513.000,56.6927,W,2,10,0ent a reply
Received: 
41 2C 31 39 35 35 32 31 2E 30 30
30 2C 34 30 32 36 2E 34 31 38 37 2C 4E 2C 3C 57 2C 32 2C 38 37 2C 32 38 37 2E 30 2C 4D 2C0 47 47 41 2C 31 39 35 35 32 32 0 
Got: $GPGG26.4187,N,07956. a reply

24 47 50 47 4 35 32 34 2E 30 38 33 2C 4E 2C 30 37
39 35 36 2C 57 2C 32 2C  38 37 2C 32 38 2C 2D 33 24
47 31 39 35 35 32 35 2E 30 30 30
2C 0 
Got: $GPGGA,195524.000,46.7008,W,2,10,0.87,287.3,M,-3$GPGGA,195525.000,
RSSI: -99
SeReceive 35 35 32 37 2E 30 30
30 2C 34 31 38 32 2C 4E 32 2C 57 2C 32 38 37 2E 35 2C 4D 2C 2D 33 24
47 50 47 47 41 2 38 2E 30 30 30
2C 0 
Got: $0,4026.4182,N,07,0.87,287.5,M,-3$GPGGA,195528.0 47 47 41 2C 31 2E 30 30
30 2C 34 31 37 39 2C 4E 2C 30 37
3932 2C 31 30 2C
32 38 37 2E 36 2C 4D 2C 2D 33 241 2C 31 39 35 30 30
2C 0 
Got: $GPGGA,195530,07956.7059,W,2,-3$GPGGA,1955302
Sent a replReceived: 
24 47 50 47 47 41 2C 31 39 35 35 33 33 2E 30 30
30 2C 34 30 32 36 2E 34 31 37 39 2C 4E 2C 30 37
39 35 36 2E 37 30 38 34 2C 57 2C 32 2C 31 30 2C
30 2E 38 37 2C 32 38 37 2E 37 2C 4D 2C 2D 33 24
47 50 47 47 41 2C 31 39 35 35 33 34 2E 30 30 30
2C 0 
Got: $GPGGA,195533.000,4026.4179,N,07956.7084,W,2,10,0.87,287.7,M,-3$GPGGA,195534.000,
RSSI: -107
Sent a reply
Received: 
24 47 50 47 47 41 2C 31 39 35 35 34 35 2E 30 30
30 2C 34 30 32 36 2E 34 31 38 30 2C 4E 2C 30 37
39 35 36 2E 37 31 36 34 2C 57 2C 32 2C 31 30 2C
30 2E 38 37 2C 32 38 36 2E 39 2C 4D 2C 2D 33 24
47 50 47 47 41 2C 31 39 35 35 34 36 2E 30 30 30
2C 0 
Got: $GPGGA,195545.000,4026.4180,N,07956.7164,W,2,10,0.87,286.9,M,-3$GPGGA,195546.000,
RSSI: -106
Sent a reply
Received: 
24 47 50 47 47 41 2C 31 39 35 35 35 33 2E 30 30
30 2C 34 30 32 36 2E 34 31 37 38 2C 4E 2C 30 37
39 35 36 2E 37 32 30 30 2C 57 2C 32 2C 31 30 2C
30 2E 38 37 2C 32 38 35 2E 34 2C 4D 2C 2D 33 24
47 50 47 47 41 2C 31 39 35 35 35 35 2E 30 30 30
2C 0 
Got: $GPGGA,195553.000,4026.4178,N,07956.7200,W,2,10,0.87,285.4,M,-3$GPGGA,195555.000,
RSSI: -102
Sent a reply
Received: 
24 47 50 47 47 41 2C 31 39 35 36 30 35 2E 30 30
30 2C 34 30 32 36 2E 34 31 37 38 2C 4E 2C 30 37
39 35 36 2E 37 32 34 33 2C 57 2C 32 2C 31 30 2C
30 2E 39 32 2C 32 38 33 2E 39 2C 4D 2C 2D 33 24
47 50 47 47 41 2C 31 39 35 36 30 36 2E 30 30 30
2C 0 
Got: $GPGGA,195605.000,4026.4178,N,07956.7243,W,2,10,0.92,283.9,M,-3$GPGGA,195606.000,
RSSI: -107
Sent a reply
Received: 
24 47 50 47 47 41 2C 31 39 35 36 31 32 2E 30 30
30 2C 34 30 32 36 2E 34 31 38 30 2C 4E 2C 30 37
39 35 36 2E 37 32 35 38 2C 57 2C 32 2C 31 30 2C
30 2E 38 37 2C 32 38 34 2E 30 2C 4D 2C 2D 33 2C
2C 4D 2C 30 2E 39 35 2C 4E 2C 31 2E 37 37 2C 4B
2C 0 
Got: $GPGGA,195612.000,4026.4180,N,07956.7258,W,2,10,0.87,284.0,M,-3,,M,0.95,N,1.77,K,
RSSI: -107
Sent a reply
Received: 
24 47 50 47 47 41 2C 31 39 35 36 31 33 2E 30 30
30 2C 34 30 32 36 2E 34 31 38 30 2C 4E 2C 30 37
39 35 36 2E 37 32 36 31 2C 57 2C 32 2C 31 30 2C
30 2E 38 37 2C 32 38 33 2E 39 2C 4D 2C 2D 33 24
47 50 47 47 41 2C 31 39 35 36 31 34 2E 30 30 30
2C 0 
Got: $GPGGA,195613.000,4026.4180,N,07956.7261,W,2,10,0.87,283.9,M,-3$GPGGA,195614.000,
RSSI: -96
Sent a reply
Received: 
24 47 50 47 47 41 2C 31 39 35 36 31 36 2E 30 30
30 2C 34 30 32 36 2E 34 31 38 31 2C 4E 2C 30 37
39 35 36 2E 37 32 37 31 2C 57 2C 32 2C 31 30 2C
30 2E 38 37 2C 32 38 33 2E 37 2C 4D 2C 2D 33 24
47 50 47 47 41 2C 31 39 35 36 31 37 2E 30 30 30
2C 0 
Got: $GPGGA,195616.000,4026.4181,N,07956.7271,W,2,10,0.87,283.7,M,-3$GPGGA,195617.000,
RSSI: -97
Sent a reply
Received: 
24 47 50 47 47 41 2C 31 39 35 36 31 39 2E 30 30
30 2C 34 30 32 36 2E 34 31 38 31 2C 4E 2C 30 37
39 35 36 2E 37 32 37 39 2C 57 2C 32 2C 31 30 2C
30 2E 39 32 2C 32 38 33 2E 34 2C 4D 2C 2D 33 24
47 50 47 47 41 2C 31 39 35 36 32 30 2E 30 30 30
2C 0 
Got: $GPGGA,195619.000,4026.4181,N,07956.7279,W,2,10,0.92,283.4,M,-3$GPGGA,195620.000,
RSSI: -116
Sent a reply
Received: 
24 47 50 47 47 41 2C 31 39 35 36 32 32 2E 30 30
30 2C 34 30 32 36 2E 34 31 38 31 2C 4E 2C 30 37
39 35 36 2E 37 32 38 32 2C 57 2C 32 2C 31 30 2C
30 2E 39 32 2C 32 38 33 2E 31 2C 4D 2C 2D 33 24
47 50 47 47 41 2C 31 39 35 36 32 33 2E 30 30 30
2C 0 
Got: $GPGGA,195622.000,4026.4181,N,07956.7282,W,2,10,0.92,283.1,M,-3$GPGGA,195623.000,
RSSI: -108
Sent a reply
Received: 
24 47 50 47 47 41 2C 31 39 35 36 32 35 2E 30 30
30 2C 34 30 32 36 2E 34 31 38 30 2C 4E 2C 30 37
39 35 36 2E 37 32 38 31 2C 57 2C 32 2C 31 30 2C
31 2E 30 30 2C 32 38 32 2E 38 2C 4D 2C 2D 33 30
32 36 2E 34 31 38 30 2C 4E 2C 30 37 39 35 36 2E
37 0 
Got: $GPGGA,195625.000,4026.4180,N,07956.7281,W,2,10,1.00,282.8,M,-3026.4180,N,07956.7
RSSI: -106
Sent a reply
Received: 
24 47 50 47 47 41 2C 31 39 35 36 33 32 2E 30 30
30 2C 34 30 32 36 2E 34 31 38 33 2C 4E 2C 30 37
39 35 36 2E 37 32 38 39 2C 57 2C 32 2C 31 30 2C
31 2E 30 30 2C 32 38 32 2E 32 2C 4D 2C 2D 33 24
47 50 47 47 41 2C 31 39 35 36 33 33 2E 30 30 30
2C 0 
Got: $GPGGA,195632.000,4026.4183,N,07956.7289,W,2,10,1.00,282.2,M,-3$GPGGA,195633.000,
RSSI: -99
Sent a reply
Received: 
24 47 50 47 47 41 2C 31 39 35 36 33 35 2E 30 30
30 2C 34 30 32 36 2E 34 31 38 35 2C 4E 2C 30 37
39 35 36 2E 37 33 30 33 2C 57 2C 32 2C 31 30 2C
30 2E 39 36 2C 32 38 32 2E 30 2C 4D 2C 2D 33 24
47 50 47 47 41 2C 31 39 35 36 33 36 2E 30 30 30
2C 0 
Got: $GPGGA,195635.000,4026.4185,N,07956.7303,W,2,10,0.96,282.0,M,-3$GPGGA,195636.000,
RSSI: -104
Sent a reply
Received: 
24 47 50 47 47 41 2C 31 39 35 36 33 38 2E 30 30
30 2C 34 30 32 36 2E 34 31 38 35 2C 4E 2C 30 37
39 35 36 2E 37 33 31 37 2C 57 2C 32 2C 31 30 2C
31 2E 30 30 2C 32 38 31 2E 38 2C 4D 2C 2D 33 24
47 50 47 47 41 2C 31 39 35 36 33 39 2E 30 30 30
2C 0 
Got: $GPGGA,195638.000,4026.4185,N,07956.7317,W,2,10,1.00,281.8,M,-3$GPGGA,195639.000,
RSSI: -105
Sent a reply
Received: 
24 47 50 47 47 41 2C 31 39 35 36 34 31 2E 30 30
30 2C 34 30 32 36 2E 34 31 38 36 2C 4E 2C 30 37
39 35 36 2E 37 33 33 30 2C 57 2C 32 2C 31 31 2C
30 2E 39 30 2C 32 38 31 2E 35 2C 4D 2C 2D 33 24
47 50 47 47 41 2C 31 39 35 36 34 32 2E 30 30 30
2C 0 
Got: $GPGGA,195641.000,4026.4186,N,07956.7330,W,2,11,0.90,281.5,M,-3$GPGGA,195642.000,
RSSI: -98
Sent a reply
Received: 
24 47 50 47 47 41 2C 31 39 35 36 34 37 2E 30 30
30 2C 34 30 32 36 2E 34 31 39 30 2C 4E 2C 30 37
39 35 36 2E 37 33 35 36 2C 57 2C 32 2C 31 31 2C
30 2E 38 35 2C 32 38 30 2E 37 2C 4D 2C 2D 33 24
47 50 47 47 41 2C 31 39 35 36 34 38 2E 30 30 30
2C 0 
Got: $GPGGA,195647.000,4026.4190,N,07956.7356,W,2,11,0.85,280.7,M,-3$GPGGA,195648.000,
RSSI: -108
Sent a reply
Received: 
24 47 50 47 47 41 2C 31 39 35 36 35 35 2E 30 30
30 2C 34 30 32 36 2E 34 31 39 33 2C 4E 2C 30 37
39 35 36 2E 37 33 36 34 2C 57 2C 32 2C 31 31 2C
30 2E 38 35 2C 32 38 30 2E 33 2C 4D 2C 2D 33 2C
4B 2C 44 2A 33 38 D A 0 36 35 31 2E 30 30 30
2C 0 
Got: $GPGGA,195655.000,4026.4193,N,07956.7364,W,2,11,0.85,280.3,M,-3,K,D*38

RSSI: -107
Sent a reply
Received: 
24 47 50 47 47 41 2C 31 39 35 36 35 36 2E 30 30
30 2C 34 30 32 36 2E 34 31 39 34 2C 4E 2C 30 37
39 35 36 2E 37 33 36 34 2C 57 2C 32 2C 31 30 2C
31 2E 30 30 2C 32 38 30 2E 32 2C 4D 2C 2D 33 24
47 50 47 47 41 2C 31 39 35 36 35 37 2E 30 30 30
2C 0 
Got: $GPGGA,195656.000,4026.4194,N,07956.7364,W,2,10,1.00,280.2,M,-3$GPGGA,195657.000,
RSSI: -105
Sent a reply
Received: 
24 47 50 47 47 41 2C 31 39 35 36 35 39 2E 30 30
30 2C 34 30 32 36 2E 34 31 39 34 2C 4E 2C 30 37
39 35 36 2E 37 33 36 34 2C 57 2C 32 2C 31 30 2C
30 2E 39 36 2C 32 38 30 2E 32 2C 4D 2C 2D 33 24
47 50 47 47 41 2C 31 39 35 37 30 30 2E 30 30 30
2C 0 
Got: $GPGGA,195659.000,4026.4194,N,07956.7364,W,2,10,0.96,280.2,M,-3$GPGGA,195700.000,
RSSI: -105
Sent a reply
Received: 
24 47 50 47 47 41 2C 31 39 35 37 30 32 2E 30 30
30 2C 34 30 32 36 2E 34 31 39 34 2C 4E 2C 30 37
39 35 36 2E 37 33 36 34 2C 57 2C 32 2C 31 31 2C
30 2E 38 35 2C 32 38 30 2E 31 2C 4D 2C 2D 33 24
47 50 47 47 41 2C 31 39 35 37 30 33 2E 30 30 30
2C 0 
Got: $GPGGA,195702.000,4026.4194,N,07956.7364,W,2,11,0.85,280.1,M,-3$GPGGA,195703.000,
RSSI: -108
Sent a reply
Received: 
24 47 50 47 47 41 2C 31 39 35 37 30 35 2E 30 30
30 2C 34 30 32 36 2E 34 31 39 34 2C 4E 2C 30 37
39 35 36 2E 37 33 36 33 2C 57 2C 32 2C 31 30 2C
31 2E 30 30 2C 32 38 30 2E 31 2C 4D 2C 2D 33 24
47 50 47 47 41 2C 31 39 35 37 30 36 2E 30 30 30
2C 0 
Got: $GPGGA,195705.000,4026.4194,N,07956.7363,W,2,10,1.00,280.1,M,-3$GPGGA,195706.000,
RSSI: -106
Sent a reply
Received: 
24 47 50 47 47 41 2C 31 39 35 37 30 38 2E 30 30
30 2C 34 30 32 36 2E 34 31 39 36 2C 4E 2C 30 37
39 35 36 2E 37 33 37 33 2C 57 2C 32 2C 31 31 2C
30 2E 38 35 2C 32 38 30 2E 30 2C 4D 2C 2D 33 24
47 50 47 47 41 2C 31 39 35 37 30 39 2E 30 30 30
2C 0 
Got: $GPGGA,195708.000,4026.4196,N,07956.7373,W,2,11,0.85,280.0,M,-3$GPGGA,195709.000,
RSSI: -107
Sent a reply
Received: 
24 47 50 47 47 41 2C 31 39 35 37 31 31 2E 30 30
30 2C 34 30 32 36 2E 34 31 39 37 2C 4E 2C 30 37
39 35 36 2E 37 33 38 36 2C 57 2C 32 2C 31 30 2C
30 2E 39 36 2C 32 37 39 2E 38 2C 4D 2C 2D 33 24
47 50 47 47 41 2C 31 39 35 37 31 32 2E 30 30 30
2C 0 
Got: $GPGGA,195711.000,4026.4197,N,07956.7386,W,2,10,0.96,279.8,M,-3$GPGGA,195712.000,
RSSI: -107
Sent a reply
Received: 
24 47 50 47 47 41 2C 31 39 35 37 31 34 2E 30 30
30 2C 34 30 32 36 2E 34 31 39 36 2C 4E 2C 30 37
39 35 36 2E 37 33 39 39 2C 57 2C 32 2C 31 30 2C
30 2E 39 36 2C 32 37 39 2E 37 2C 4D 2C 2D 33 24
47 50 47 47 41 2C 31 39 35 37 31 35 2E 30 30 30
2C 0 
Got: $GPGGA,195714.000,4026.4196,N,07956.7399,W,2,10,0.96,279.7,M,-3$GPGGA,195715.000,
RSSI: -104
Sent a reply
Received: 
24 47 50 47 47 41 2C 31 39 35 37 31 37 2E 30 30
30 2C 34 30 32 36 2E 34 31 39 36 2C 4E 2C 30 37
39 35 36 2E 37 34 31 30 2C 57 2C 32 2C 31 30 2C
30 2E 39 36 2C 32 37 39 2E 35 2C 4D 2C 2D 33 24
47 50 47 47 41 2C 31 39 35 37 31 38 2E 30 30 30
2C 0 
Got: $GPGGA,195717.000,4026.4196,N,07956.7410,W,2,10,0.96,279.5,M,-3$GPGGA,195718.000,
RSSI: -104
Sent a reply
Received: 
24 47 50 47 47 41 2C 31 39 35 37 32 30 2E 30 30
30 2C 34 30 32 36 2E 34 31 39 36 2C 4E 2C 30 37
39 35 36 2E 37 34 32 32 2C 57 2C 32 2C 31 30 2C
30 2E 39 39 2C 32 37 39 2E 33 2C 4D 2C 2D 33 24
47 50 47 47 41 2C 31 39 35 37 32 31 2E 30 30 30
2C 0 
Got: $GPGGA,195720.000,4026.4196,N,07956.7422,W,2,10,0.99,279.3,M,-3$GPGGA,195721.000,
RSSI: -104
Sent a reply
Received: 
24 47 50 47 47 41 2C 31 39 35 37 32 33 2E 30 30
30 2C 34 30 32 36 2E 34 31 39 38 2C 4E 2C 30 37
39 35 36 2E 37 34 33 32 2C 57 2C 32 2C 31 30 2C
30 2E 39 36 2C 32 37 39 2E 31 2C 4D 2C 2D 33 24
47 50 47 47 41 2C 31 39 35 37 32 34 2E 30 30 30
2C 0 
Got: $GPGGA,195723.000,4026.4198,N,07956.7432,W,2,10,0.96,279.1,M,-3$GPGGA,195724.000,
RSSI: -107
Sent a reply
Received: 
24 47 50 47 47 41 2C 31 39 35 37 32 36 2E 30 30
30 2C 34 30 32 36 2E 34 32 30 31 2C 4E 2C 30 37
39 35 36 2E 37 34 34 34 2C 57 2C 32 2C 30 39 2C
31 2E 30 32 2C 32 37 39 2E 30 2C 4D 2C 2D 33 24
47 50 47 47 41 2C 31 39 35 37 32 37 2E 30 30 30
2C 0 
Got: $GPGGA,195726.000,4026.4201,N,07956.7444,W,2,09,1.02,279.0,M,-3$GPGGA,195727.000,
RSSI: -104
Sent a reply
Received: 
24 47 50 47 47 41 2C 31 39 35 37 34 32 2E 30 30
30 2C 34 30 32 36 2E 34 31 39 39 2C 4E 2C 30 37
39 35 36 2E 37 35 31 30 2C 57 2C 32 2C 31 30 2C
30 2E 39 39 2C 32 37 37 2E 36 2C 4D 2C 2D 33 4B
2C 44 2A 33 41 D A 0 2C 33 35 2C 32 31 38 2C
32 0 
Got: $GPGGA,195742.000,4026.4199,N,07956.7510,W,2,10,0.99,277.6,M,-3K,D*3A

RSSI: -107
Sent a reply
Received: 
24 47 50 47 47 41 2C 31 39 35 37 34 33 2E 30 30
30 2C 34 30 32 36 2E 34 31 39 39 2C 4E 2C 30 37
39 35 36 2E 37 35 31 31 2C 57 2C 32 2C 31 30 2C
30 2E 39 39 2C 32 37 37 2E 36 2C 4D 2C 2D 33 24
47 50 47 47 41 2C 31 39 35 37 34 34 2E 30 30 30
2C 0 
Got: $GPGGA,195743.000,4026.4199,N,07956.7511,W,2,10,0.99,277.6,M,-3$GPGGA,195744.000,
RSSI: -109
Sent a reply
Received: 
24 47 50 47 47 41 2C 31 39 35 37 34 36 2E 30 30
30 2C 34 30 32 36 2E 34 31 39 37 2C 4E 2C 30 37
39 35 36 2E 37 35 31 33 2C 57 2C 32 2C 31 30 2C
30 2E 39 39 2C 32 37 37 2E 35 2C 4D 2C 2D 33 24
47 50 47 47 41 2C 31 39 35 37 34 37 2E 30 30 30
2C 0 
Got: $GPGGA,195746.000,4026.4197,N,07956.7513,W,2,10,0.99,277.5,M,-3$GPGGA,195747.000,
RSSI: -105
Sent a reply
Received: 
24 47 50 47 47 41 2C 31 39 35 38 30 32 2E 30 30
30 2C 34 30 32 36 2E 34 31 39 39 2C 4E 2C 30 37
39 35 36 2E 37 35 34 37 2C 57 2C 32 2C 30 39 2C
31 2E 30 32 2C 32 37 36 2E 36 2C 4D 2C 2D 33 24
47 50 47 47 41 2C 31 39 35 38 30 33 2E 30 30 30
2C 0 
Got: $GPGGA,195802.000,4026.4199,N,07956.7547,W,2,09,1.02,276.6,M,-3$GPGGA,195803.000,
RSSI: -106
Sent a reply
Received: 
24 47 50 47 47 41 2C 31 39 35 38 30 35 2E 30 30
30 2C 34 30 32 36 2E 34 32 30 30 2C 4E 2C 30 37
39 35 36 2E 37 35 35 35 2C 57 2C 32 2C 31 30 2C
30 2E 39 39 2C 32 37 36 2E 32 2C 4D 2C 2D 33 24
47 50 47 47 41 2C 31 39 35 38 30 36 2E 30 30 30
2C 0 
Got: $GPGGA,195805.000,4026.4200,N,07956.7555,W,2,10,0.99,276.2,M,-3$GPGGA,195806.000,
RSSI: -108
Sent a reply
Received: 
24 47 50 47 47 41 2C 31 39 35 38 30 38 2E 30 30
30 2C 34 30 32 36 2E 34 32 30 32 2C 4E 2C 30 37
39 35 36 2E 37 35 35 32 2C 57 2C 32 2C 31 30 2C
30 2E 39 39 2C 32 37 35 2E 39 2C 4D 2C 2D 33 24
47 50 47 47 41 2C 31 39 35 38 30 39 2E 30 30 30
2C 0 
Got: $GPGGA,195808.000,4026.4202,N,07956.7552,W,2,10,0.99,275.9,M,-3$GPGGA,195809.000,
RSSI: -111
Sent a reply
Received: 
24 47 50 47 47 41 2C 31 39 35 38 31 31 2E 30 30
30 2C 34 30 32 36 2E 34 32 30 32 2C 4E 2C 30 37
39 35 36 2E 37 35 35 33 2C 57 2C 32 2C 31 31 2C
30 2E 39 30 2C 32 37 35 2E 38 2C 4D 2C 2D 33 24
47 50 47 47 41 2C 31 39 35 38 31 32 2E 30 30 30
2C 0 
Got: $GPGGA,195811.000,4026.4202,N,07956.7553,W,2,11,0.90,275.8,M,-3$GPGGA,195812.000,
RSSI: -109
Sent a reply
Received: 
24 47 50 47 47 41 2C 31 39 35 38 31 34 2E 30 30
30 2C 34 30 32 36 2E 34 32 30 32 2C 4E 2C 30 37
39 35 36 2E 37 35 35 32 2C 57 2C 32 2C 31 31 2C
30 2E 39 30 2C 32 37 35 2E 36 2C 4D 2C 2D 33 24
47 50 47 47 41 2C 31 39 35 38 31 35 2E 30 30 30
2C 0 
Got: $GPGGA,195814.000,4026.4202,N,07956.7552,W,2,11,0.90,275.6,M,-3$GPGGA,195815.000,
RSSI: -110
Sent a reply
Received: 
24 47 50 47 47 41 2C 31 39 35 38 31 37 2E 30 30
30 2C 34 30 32 36 2E 34 32 30 32 2C 4E 2C 30 37
39 35 36 2E 37 35 35 34 2C 57 2C 32 2C 31 30 2C
30 2E 39 39 2C 32 37 35 2E 35 2C 4D 2C 2D 33 24
47 50 47 47 41 2C 31 39 35 38 31 38 2E 30 30 30
2C 0 
Got: $GPGGA,195817.000,4026.4202,N,07956.7554,W,2,10,0.99,275.5,M,-3$GPGGA,195818.000,
RSSI: -107
Sent a reply
Received: 
24 47 50 47 47 41 2C 31 39 35 38 32 30 2E 30 30
30 2C 34 30 32 36 2E 34 32 30 34 2C 4E 2C 30 37
39 35 36 2E 37 35 35 39 2C 57 2C 32 2C 31 30 2C
30 2E 39 39 2C 32 37 35 2E 35 2C 4D 2C 2D 33 24
47 50 47 47 41 2C 31 39 35 38 32 31 2E 30 30 30
2C 0 
Got: $GPGGA,195820.000,4026.4204,N,07956.7559,W,2,10,0.99,275.5,M,-3$GPGGA,195821.000,
RSSI: -105
Sent a reply
Received: 
24 47 50 47 47 41 2C 31 39 35 38 32 33 2E 30 30
30 2C 34 30 32 36 2E 34 32 30 34 2C 4E 2C 30 37
39 35 36 2E 37 35 37 34 2C 57 2C 32 2C 31 30 2C
30 2E 39 36 2C 32 37 35 2E 35 2C 4D 2C 2D 33 24
47 50 47 47 41 2C 31 39 35 38 32 34 2E 30 30 30
2C 0 
Got: $GPGGA,195823.000,4026.4204,N,07956.7574,W,2,10,0.96,275.5,M,-3$GPGGA,195824.000,
RSSI: -102
Sent a reply
Received: 
24 47 50 47 47 41 2C 31 39 35 38 32 36 2E 30 30
30 2C 34 30 32 36 2E 34 32 30 32 2C 4E 2C 30 37
39 35 36 2E 37 35 38 39 2C 57 2C 32 2C 31 30 2C
30 2E 39 36 2C 32 37 35 2E 36 2C 4D 2C 2D 33 24
47 50 47 47 41 2C 31 39 35 38 32 37 2E 30 30 30
2C 0 
Got: $GPGGA,195826.000,4026.4202,N,07956.7589,W,2,10,0.96,275.6,M,-3$GPGGA,195827.000,
RSSI: -96
Sent a reply
Received: 
24 47 50 47 47 41 2C 31 39 35 38 33 35 2E 30 30
30 2C 34 30 32 36 2E 34 32 30 32 2C 4E 2C 30 37
39 35 36 2E 37 36 32 39 2C 57 2C 32 2C 31 30 2C
30 2E 39 36 2C 32 37 35 2E 33 2C 4D 2C 2D 33 24
47 50 47 47 41 2C 31 39 35 38 33 36 2E 30 30 30
2C 0 
Got: $GPGGA,195835.000,4026.4202,N,07956.7629,W,2,10,0.96,275.3,M,-3$GPGGA,195836.000,
RSSI: -105
Sent a reply
Received: 
24 47 50 47 47 41 2C 31 39 35 38 33 38 2E 30 30
30 2C 34 30 32 36 2E 34 32 30 35 2C 4E 2C 30 37
39 35 36 2E 37 36 33 39 2C 57 2C 32 2C 31 30 2C
30 2E 39 36 2C 32 37 35 2E 30 2C 4D 2C 2D 33 24
47 50 47 47 41 2C 31 39 35 38 33 39 2E 30 30 30
2C 0 
Got: $GPGGA,195838.000,4026.4205,N,07956.7639,W,2,10,0.96,275.0,M,-3$GPGGA,195839.000,
RSSI: -109
Sent a reply
Received: 
24 47 50 47 47 41 2C 31 39 35 38 34 31 2E 30 30
30 2C 34 30 32 36 2E 34 32 31 34 2C 4E 2C 30 37
39 35 36 2E 37 36 34 38 2C 57 2C 32 2C 31 30 2C
30 2E 39 36 2C 32 37 34 2E 37 2C 4D 2C 2D 33 24
47 50 47 47 41 2C 31 39 35 38 34 32 2E 30 30 30
2C 0 
Got: $GPGGA,195841.000,4026.4214,N,07956.7648,W,2,10,0.96,274.7,M,-3$GPGGA,195842.000,
RSSI: -102
Sent a reply
Received: 
24 47 50 47 47 41 2C 31 39 35 38 34 34 2E 30 30
30 2C 34 30 32 36 2E 34 32 32 33 2C 4E 2C 30 37
39 35 36 2E 37 36 35 36 2C 57 2C 32 2C 31 31 2C
30 2E 38 34 2C 32 37 34 2E 35 2C 4D 2C 2D 33 24
47 50 47 47 41 2C 31 39 35 38 34 35 2E 30 30 30
2C 0 
Got: $GPGGA,195844.000,4026.4223,N,07956.7656,W,2,11,0.84,274.5,M,-3$GPGGA,195845.000,
RSSI: -106
Sent a reply
Received: 
24 47 50 47 47 41 2C 31 39 35 38 34 37 2E 30 30
30 2C 34 30 32 36 2E 34 32 32 37 2C 4E 2C 30 37
39 35 36 2E 37 36 37 31 2C 57 2C 32 2C 31 31 2C
30 2E 38 34 2C 32 37 34 2E 35 2C 4D 2C 2D 33 24
47 50 47 47 41 2C 31 39 35 38 34 38 2E 30 30 30
2C 0 
Got: $GPGGA,195847.000,4026.4227,N,07956.7671,W,2,11,0.84,274.5,M,-3$GPGGA,195848.000,
RSSI: -105
Sent a reply
Received: 
24 47 50 47 47 41 2C 31 39 35 39 30 30 2E 30 30
30 2C 34 30 32 36 2E 34 32 33 36 2C 4E 2C 30 37
39 35 36 2E 37 37 33 38 2C 57 2C 32 2C 31 30 2C
30 2E 39 36 2C 32 37 33 2E 37 2C 4D 2C 2D 33 24
47 50 47 47 41 2C 31 39 35 39 30 31 2E 30 30 30
2C 0 
Got: $GPGGA,195900.000,4026.4236,N,07956.7738,W,2,10,0.96,273.7,M,-3$GPGGA,195901.000,
RSSI: -107
Sent a reply
Received: 
24 47 50 47 47 41 2C 32 30 30 31 35 31 2E 30 30
30 2C 34 30 32 36 2E 34 32 33 33 2C 4E 2C 30 37
39 35 36 2E 37 37 34 30 2C 57 2C 32 2C 31 31 2C
30 2E 38 39 2C 32 37 33 2E 33 2C 4D 2C 2D 33 24
47 50 47 47 41 2C 32 30 30 31 35 32 2E 30 30 30
2C 0 
Got: $GPGGA,200151.000,4026.4233,N,07956.7740,W,2,11,0.89,273.3,M,-3$GPGGA,200152.000,
RSSI: -108
Sent a reply
Received: 
24 47 50 47 47 41 2C 32 30 30 31 35 34 2E 30 30
30 2C 34 30 32 36 2E 34 32 33 33 2C 4E 2C 30 37
39 35 36 2E 37 37 34 30 2C 57 2C 32 2C 31 31 2C
30 2E 38 39 2C 32 37 33 2E 33 2C 4D 2C 2D 33 24
47 50 47 47 41 2C 32 30 30 31 35 35 2E 30 30 30
2C 0 
Got: $GPGGA,200154.000,4026.4233,N,07956.7740,W,2,11,0.89,273.3,M,-3$GPGGA,200155.000,
RSSI: -106
Sent a reply
Received: 
24 47 50 47 47 41 2C 32 30 30 31 35 37 2E 30 30
30 2C 34 30 32 36 2E 34 32 33 33 2C 4E 2C 30 37
39 35 36 2E 37 37 34 30 2C 57 2C 32 2C 31 30 2C
30 2E 39 31 2C 32 37 33 2E 33 2C 4D 2C 2D 33 24
47 50 47 47 41 2C 32 30 30 31 35 38 2E 30 30 30
2C 0 
Got: $GPGGA,200157.000,4026.4233,N,07956.7740,W,2,10,0.91,273.3,M,-3$GPGGA,200158.000,
RSSI: -108
Sent a reply
Received: 
24 47 50 47 47 41 2C 32 30 30 32 30 30 2E 30 30
30 2C 34 30 32 36 2E 34 32 33 33 2C 4E 2C 30 37
39 35 36 2E 37 37 34 30 2C 57 2C 32 2C 31 30 2C
30 2E 39 31 2C 32 37 33 2E 33 2C 4D 2C 2D 33 24
47 50 47 47 41 2C 32 30 30 32 30 31 2E 30 30 30
2C 0 
Got: $GPGGA,200200.000,4026.4233,N,07956.7740,W,2,10,0.91,273.3,M,-3$GPGGA,200201.000,
RSSI: -101
Sent a reply
Received: 
24 47 50 47 47 41 2C 32 30 30 32 30 33 2E 30 30
30 2C 34 30 32 36 2E 34 32 33 33 2C 4E 2C 30 37
39 35 36 2E 37 37 34 30 2C 57 2C 32 2C 30 39 2C
30 2E 39 38 2C 32 37 33 2E 33 2C 4D 2C 2D 33 24
47 50 47 47 41 2C 32 30 30 32 30 34 2E 30 30 30
2C 0 
Got: $GPGGA,200203.000,4026.4233,N,07956.7740,W,2,09,0.98,273.3,M,-3$GPGGA,200204.000,
RSSI: -102
Sent a reply
Received: 
24 47 50 47 47 41 2C 32 30 30 33 30 35 2E 30 30
30 2C 34 30 32 36 2E 34 32 33 30 2C 4E 2C 30 37
39 35 36 2E 37 37 34 38 2C 57 2C 32 2C 31 31 2C
30 2E 38 39 2C 32 37 34 2E 31 2C 4D 2C 2D 33 30
34 2C 4B 2C 44 2A 30 30 D A 0 31 2E 30 30 30
2C 0 
Got: $GPGGA,200305.000,4026.4230,N,07956.7748,W,2,11,0.89,274.1,M,-304,K,D*00

RSSI: -106
Sent a reply
Received: 
24 47 50 47 47 41 2C 32 30 30 33 31 36 2E 30 30
30 2C 34 30 32 36 2E 34 32 33 30 2C 4E 2C 30 37
39 35 36 2E 37 37 34 37 2C 57 2C 32 2C 31 30 2C
30 2E 39 33 2C 32 37 34 2E 31 2C 4D 2C 2D 33 24
47 50 47 47 41 2C 32 30 30 33 31 37 2E 30 30 30
2C 0 
Got: $GPGGA,200316.000,4026.4230,N,07956.7747,W,2,10,0.93,274.1,M,-3$GPGGA,200317.000,
RSSI: -103
Sent a reply
Received: 
24 47 50 47 47 41 2C 32 30 30 35 32 35 2E 30 30
30 2C 34 30 32 36 2E 34 31 38 35 2C 4E 2C 30 37
39 35 36 2E 37 33 36 34 2C 57 2C 32 2C 31 30 2C
30 2E 39 35 2C 32 37 35 2E 39 2C 4D 2C 2D 33 24
47 50 47 47 41 2C 32 30 30 35 32 36 2E 30 30 30
2C 0 
Got: $GPGGA,200525.000,4026.4185,N,07956.7364,W,2,10,0.95,275.9,M,-3$GPGGA,200526.000,
RSSI: -106
Sent a reply
Received: 
24 47 50 47 47 41 2C 32 30 30 35 33 36 2E 30 30
30 2C 34 30 32 36 2E 34 31 37 34 2C 4E 2C 30 37
39 35 36 2E 37 32 36 38 2C 57 2C 32 2C 31 30 2C
30 2E 39 35 2C 32 37 39 2E 38 2C 4D 2C 2D 33 24
47 50 47 47 41 2C 32 30 30 35 33 37 2E 30 30 30
2C 0 
Got: $GPGGA,200536.000,4026.4174,N,07956.7268,W,2,10,0.95,279.8,M,-3$GPGGA,200537.000,
RSSI: -103
Sent a reply
Received: 
24 47 50 47 47 41 2C 32 30 30 35 33 39 2E 30 30
30 2C 34 30 32 36 2E 34 31 37 35 2C 4E 2C 30 37
39 35 36 2E 37 32 34 35 2C 57 2C 32 2C 31 30 2C
30 2E 39 35 2C 32 38 30 2E 34 2C 4D 2C 2D 33 24
47 50 47 47 41 2C 32 30 30 35 34 30 2E 30 30 30
2C 0 
Got: $GPGGA,200539.000,4026.4175,N,07956.7245,W,2,10,0.95,280.4,M,-3$GPGGA,200540.000,
RSSI: -106
Sent a reply
Received: 
24 47 50 47 47 41 2C 32 30 30 35 34 32 2E 30 30
30 2C 34 30 32 36 2E 34 31 37 36 2C 4E 2C 30 37
39 35 36 2E 37 32 32 32 2C 57 2C 32 2C 31 30 2C
30 2E 39 35 2C 32 38 30 2E 38 2C 4D 2C 2D 33 24
47 50 47 47 41 2C 32 30 30 35 34 33 2E 30 30 30
2C 0 
Got: $GPGGA,200542.000,4026.4176,N,07956.7222,W,2,10,0.95,280.8,M,-3$GPGGA,200543.000,
RSSI: -101
Sent a reply
Received: 
24 47 50 47 47 41 2C 32 30 30 35 35 30 2E 30 30
30 2C 34 30 32 36 2E 34 31 38 30 2C 4E 2C 30 37
39 35 36 2E 37 31 35 32 2C 57 2C 32 2C 31 30 2C
30 2E 39 34 2C 32 38 32 2E 32 2C 4D 2C 2D 33 24
47 50 47 47 41 2C 32 30 30 35 35 31 2E 30 30 30
2C 0 
Got: $GPGGA,200550.000,4026.4180,N,07956.7152,W,2,10,0.94,282.2,M,-3$GPGGA,200551.000,
RSSI: -93
Sent a reply
Received: 
24 47 50 47 47 41 2C 32 30 30 35 35 33 2E 30 30
30 2C 34 30 32 36 2E 34 31 37 39 2C 4E 2C 30 37
39 35 36 2E 37 31 32 35 2C 57 2C 32 2C 31 30 2C
30 2E 39 34 2C 32 38 32 2E 34 2C 4D 2C 2D 33 24
47 50 47 47 41 2C 32 30 30 35 35 34 2E 30 30 30
2C 0 
Got: $GPGGA,200553.000,4026.4179,N,07956.7125,W,2,10,0.94,282.4,M,-3$GPGGA,200554.000,
RSSI: -91
Sent a reply
Received: 
24 47 50 47 47 41 2C 32 30 30 35 35 36 2E 30 30
30 2C 34 30 32 36 2E 34 31 38 32 2C 4E 2C 30 37
39 35 36 2E 37 31 30 32 2C 57 2C 32 2C 31 30 2C
30 2E 39 34 2C 32 38 32 2E 36 2C 4D 2C 2D 33 24
47 50 47 47 41 2C 32 30 30 35 35 37 2E 30 30 30
2C 0 
Got: $GPGGA,200556.000,4026.4182,N,07956.7102,W,2,10,0.94,282.6,M,-3$GPGGA,200557.000,
RSSI: -92
Sent a reply
Received: 
24 47 50 47 47 41 2C 32 30 30 35 35 39 2E 30 30
30 2C 34 30 32 36 2E 34 31 38 32 2C 4E 2C 30 37
39 35 36 2E 37 30 37 38 2C 57 2C 32 2C 31 30 2C
30 2E 39 34 2C 32 38 32 2E 39 2C 4D 2C 2D 33 24
47 50 47 47 41 2C 32 30 30 36 30 30 2E 30 30 30
2C 0 
Got: $GPGGA,200559.000,4026.4182,N,07956.7078,W,2,10,0.94,282.9,M,-3$GPGGA,200600.000,
RSSI: -91
Sent a reply
Received: 
24 47 50 47 47 41 2C 32 30 30 36 30 32 2E 30 30
30 2C 34 30 32 36 2E 34 31 38 35 2C 4E 2C 30 37
39 35 36 2E 37 30 35 36 2C 57 2C 32 2C 31 30 2C
30 2E 39 34 2C 32 38 33 2E 35 2C 4D 2C 2D 33 24
47 50 47 47 41 2C 32 30 30 36 30 33 2E 30 30 30
2C 0 
Got: $GPGGA,200602.000,4026.4185,N,07956.7056,W,2,10,0.94,283.5,M,-3$GPGGA,200603.000,
RSSI: -88
Sent a reply
Received: 
24 47 50 47 47 41 2C 32 30 30 36 30 35 2E 30 30
30 2C 34 30 32 36 2E 34 31 39 30 2C 4E 2C 30 37
39 35 36 2E 37 30 33 34 2C 57 2C 32 2C 31 30 2C
30 2E 39 34 2C 32 38 34 2E 33 2C 4D 2C 2D 33 24
47 50 47 47 41 2C 32 30 30 36 30 36 2E 30 30 30
2C 0 
Got: $GPGGA,200605.000,4026.4190,N,07956.7034,W,2,10,0.94,284.3,M,-3$GPGGA,200606.000,
RSSI: -88
Sent a reply
Received: 
24 47 50 47 47 41 2C 32 30 30 36 30 38 2E 30 30
30 2C 34 30 32 36 2E 34 31 39 32 2C 4E 2C 30 37
39 35 36 2E 37 30 30 37 2C 57 2C 32 2C 31 30 2C
30 2E 39 34 2C 32 38 34 2E 39 2C 4D 2C 2D 33 24
47 50 47 47 41 2C 32 30 30 36 30 39 2E 30 30 30
2C 0 
Got: $GPGGA,200608.000,4026.4192,N,07956.7007,W,2,10,0.94,284.9,M,-3$GPGGA,200609.000,
RSSI: -89
Sent a reply
Received: 
24 47 50 47 47 41 2C 32 30 30 36 31 31 2E 30 30
30 2C 34 30 32 36 2E 34 31 39 32 2C 4E 2C 30 37
39 35 36 2E 36 39 38 31 2C 57 2C 32 2C 31 30 2C
30 2E 39 34 2C 32 38 35 2E 35 2C 4D 2C 2D 33 24
47 50 47 47 41 2C 32 30 30 36 31 32 2E 30 30 30
2C 0 
Got: $GPGGA,200611.000,4026.4192,N,07956.6981,W,2,10,0.94,285.5,M,-3$GPGGA,200612.000,
RSSI: -82
Sent a reply
Received: 
24 47 50 47 47 41 2C 32 30 30 36 31 34 2E 30 30
30 2C 34 30 32 36 2E 34 31 39 30 2C 4E 2C 30 37
39 35 36 2E 36 39 35 36 2C 57 2C 32 2C 31 30 2C
30 2E 39 34 2C 32 38 36 2E 33 2C 4D 2C 2D 33 24
47 50 47 47 41 2C 32 30 30 36 31 35 2E 30 30 30
2C 0 
Got: $GPGGA,200614.000,4026.4190,N,07956.6956,W,2,10,0.94,286.3,M,-3$GPGGA,200615.000,
RSSI: -76
Sent a reply
Received: 
24 47 50 47 47 41 2C 32 30 30 36 31 37 2E 30 30
30 2C 34 30 32 36 2E 34 31 39 31 2C 4E 2C 30 37
39 35 36 2E 36 39 32 39 2C 57 2C 32 2C 31 30 2C
30 2E 39 34 2C 32 38 37 2E 34 2C 4D 2C 2D 33 24
47 50 47 47 41 2C 32 30 30 36 31 38 2E 30 30 30
2C 0 
Got: $GPGGA,200617.000,4026.4191,N,07956.6929,W,2,10,0.94,287.4,M,-3$GPGGA,200618.000,
RSSI: -74
Sent a reply
Received: 
24 47 50 47 47 41 2C 32 30 30 36 32 30 2E 30 30
30 2C 34 30 32 36 2E 34 31 38 37 2C 4E 2C 30 37
39 35 36 2E 36 39 30 35 2C 57 2C 32 2C 31 30 2C
30 2E 39 34 2C 32 38 38 2E 34 2C 4D 2C 2D 33 24
47 50 47 47 41 2C 32 30 30 36 32 31 2E 30 30 30
2C 0 
Got: $GPGGA,200620.000,4026.4187,N,07956.6905,W,2,10,0.94,288.4,M,-3$GPGGA,200621.000,
RSSI: -66
Sent a reply
Received: 
24 47 50 47 47 41 2C 32 30 30 36 32 33 2E 30 30
30 2C 34 30 32 36 2E 34 31 38 37 2C 4E 2C 30 37
39 35 36 2E 36 38 38 31 2C 57 2C 32 2C 31 30 2C
30 2E 39 34 2C 32 38 39 2E 31 2C 4D 2C 2D 33 24
47 50 47 47 41 2C 32 30 30 36 32 34 2E 30 30 30
2C 0 
Got: $GPGGA,200623.000,4026.4187,N,07956.6881,W,2,10,0.94,289.1,M,-3$GPGGA,200624.000,
RSSI: -78
Sent a reply
Received: 
24 47 50 47 47 41 2C 32 30 30 36 32 36 2E 30 30
30 2C 34 30 32 36 2E 34 31 38 36 2C 4E 2C 30 37
39 35 36 2E 36 38 36 32 2C 57 2C 32 2C 31 30 2C
30 2E 39 34 2C 32 38 39 2E 37 2C 4D 2C 2D 33 24
47 50 47 47 41 2C 32 30 30 36 32 37 2E 30 30 30
2C 0 
Got: $GPGGA,200626.000,4026.4186,N,07956.6862,W,2,10,0.94,289.7,M,-3$GPGGA,200627.000,
RSSI: -71
Sent a reply
Received: 
24 47 50 47 47 41 2C 32 30 30 36 32 39 2E 30 30
30 2C 34 30 32 36 2E 34 31 38 36 2C 4E 2C 30 37
39 35 36 2E 36 38 34 39 2C 57 2C 32 2C 31 30 2C
30 2E 39 34 2C 32 39 30 2E 39 2C 4D 2C 2D 33 24
47 50 47 47 41 2C 32 30 30 36 33 30 2E 30 30 30
2C 0 
Got: $GPGGA,200629.000,4026.4186,N,07956.6849,W,2,10,0.94,290.9,M,-3$GPGGA,200630.000,
RSSI: -62
Sent a reply