Test number(s): 1-15
Test description: First test in schenely
Latitude: 39.9925
Longitude: -75.1415
Altitude: 960ft

Arduino LoRa RX Test!
LoRa radio init OK!
Set Freq to: 433.00
Received: 
24 47 50 47 47 41 2C 31 39 34 30 31 33 2E 30 30
30 2C 34 30 32 36 2E 34 31 30 38 2C 4E 2C 30 37
39 35 36 2E 36 35 31 31 2C 57 2C 32 2C 30 35 2C
31 2E 37 35 2C 33 33 36 2E 37 2C 4D 2C 2D 33 24
47 50 47 47 41 2C 31 39 34 30 31 34 2E 30 30 30
2C 0 
Got: $GPGGA,194013.000,4026.4108,N,07956.6511,W,2,05,1.75,336.7,M,-3$GPGGA,194014.000,
RSSI: -61
Sent a reply
Received: 
24 47 50 47 47 41 2C 31 39 34 30 31 36 2E 30 30
30 2C 34 30 32 36 2E 34 31 30 39 2C 4E 2C 30 37
39 35 36 2E 36 35 31 30 2C 57 2C 32 2C 30 35 2C
31 2E 37 35 2C 33 33 36 2E 35 2C 4D 2C 2D 33 24
47 50 47 47 41 2C 31 39 34 30 31 37 2E 30 30 30
2C 0 
Got: $GPGGA,194016.000,4026.4109,N,07956.6510,W,2,05,1.75,336.5,M,-3$GPGGA,194017.000,
RSSI: -62
Sent a reply
Received: 
24 47 50 47 47 41 2C 31 39 34 30 31 39 2E 30 30
30 2C 34 30 32 36 2E 34 31 30 38 2C 4E 2C 30 37
39 35 36 2E 36 35 31 36 2C 57 2C 32 2C 30 35 2C
31 2E 37 35 2C 33 33 37 2E 38 2C 4D 2C 2D 33 24
47 50 47 47 41 2C 31 39 34 30 32 30 2E 30 30 30
2C 0 
Got: $GPGGA,194019.000,4026.4108,N,07956.6516,W,2,05,1.75,337.8,M,-3$GPGGA,194020.000,
RSSI: -62
Sent a reply
Received: 
24 47 50 47 47 41 2C 31 39 34 30 32 32 2E 30 30
30 2C 34 30 32 36 2E 34 31 30 38 2C 4E 2C 30 37
39 35 36 2E 36 35 31 39 2C 57 2C 32 2C 30 35 2C
31 2E 37 35 2C 33 33 39 2E 30 2C 4D 2C 2D 33 24
47 50 47 47 41 2C 31 39 34 30 32 33 2E 30 30 30
2C 0 
Got: $GPGGA,194022.000,4026.4108,N,07956.6519,W,2,05,1.75,339.0,M,-3$GPGGA,194023.000,
RSSI: -59
Sent a reply
Received: 
24 47 50 47 47 41 2C 31 39 34 30 32 35 2E 30 30
30 2C 34 30 32 36 2E 34 31 30 35 2C 4E 2C 30 37
39 35 36 2E 36 35 33 30 2C 57 2C 32 2C 30 35 2C
31 2E 37 35 2C 33 34 31 2E 30 2C 4D 2C 2D 33 24
47 50 47 47 41 2C 31 39 34 30 32 36 2E 30 30 30
2C 0 
Got: $GPGGA,194025.000,4026.4105,N,07956.6530,W,2,05,1.75,341.0,M,-3$GPGGA,194026.000,
RSSI: -61
Sent a reply
Received: 
24 47 50 47 47 41 2C 31 39 34 30 32 38 2E 30 30
30 2C 34 30 32 36 2E 34 31 30 39 2C 4E 2C 30 37
39 35 36 2E 36 35 33 30 2C 57 2C 32 2C 30 35 2C
33 2E 32 39 2C 33 34 30 2E 30 2C 4D 2C 2D 33 24
47 50 47 47 41 2C 31 39 34 30 32 39 2E 30 30 30
2C 0 
Got: $GPGGA,194028.000,4026.4109,N,07956.6530,W,2,05,3.29,340.0,M,-3$GPGGA,194029.000,
RSSI: -61
Sent a reply
Received: 
24 47 50 47 47 41 2C 31 39 34 30 33 31 2E 30 30
30 2C 34 30 32 36 2E 34 31 31 33 2C 4E 2C 30 37
39 35 36 2E 36 35 33 31 2C 57 2C 32 2C 30 35 2C
31 2E 37 35 2C 33 33 39 2E 30 2C 4D 2C 2D 33 24
47 50 47 47 41 2C 31 39 34 30 33 32 2E 30 30 30
2C 0 
Got: $GPGGA,194031.000,4026.4113,N,07956.6531,W,2,05,1.75,339.0,M,-3$GPGGA,194032.000,
RSSI: -61
Sent a reply
Received: 
24 47 50 47 47 41 2C 31 39 34 30 33 34 2E 30 30
30 2C 34 30 32 36 2E 34 31 31 37 2C 4E 2C 30 37
39 35 36 2E 36 35 32 37 2C 57 2C 32 2C 30 35 2C
31 2E 37 35 2C 33 33 37 2E 38 2C 4D 2C 2D 33 24
47 50 47 47 41 2C 31 39 34 30 33 35 2E 30 30 30
2C 0 
Got: $GPGGA,194034.000,4026.4117,N,07956.6527,W,2,05,1.75,337.8,M,-3$GPGGA,194035.000,
RSSI: -61
Sent a reply
Received: 
24 47 50 47 47 41 2C 31 39 34 30 33 37 2E 30 30
30 2C 34 30 32 36 2E 34 31 32 33 2C 4E 2C 30 37
39 35 36 2E 36 35 32 35 2C 57 2C 32 2C 30 35 2C
31 2E 37 35 2C 33 33 36 2E 37 2C 4D 2C 2D 33 24
47 50 47 47 41 2C 31 39 34 30 33 38 2E 30 30 30
2C 0 
Got: $GPGGA,194037.000,4026.4123,N,07956.6525,W,2,05,1.75,336.7,M,-3$GPGGA,194038.000,
RSSI: -61
Sent a reply
Received: 
24 47 50 47 47 41 2C 31 39 34 30 34 30 2E 30 30
30 2C 34 30 32 36 2E 34 31 32 34 2C 4E 2C 30 37
39 35 36 2E 36 35 32 34 2C 57 2C 32 2C 30 35 2C
33 2E 32 37 2C 33 33 36 2E 37 2C 4D 2C 2D 33 24
47 50 47 47 41 2C 31 39 34 30 34 31 2E 30 30 30
2C 0 
Got: $GPGGA,194040.000,4026.4124,N,07956.6524,W,2,05,3.27,336.7,M,-3$GPGGA,194041.000,
RSSI: -60
Sent a reply
Received: 
24 47 50 47 47 41 2C 31 39 34 30 34 33 2E 30 30
30 2C 34 30 32 36 2E 34 31 32 35 2C 4E 2C 30 37
39 35 36 2E 36 35 32 34 2C 57 2C 32 2C 30 35 2C
31 2E 37 35 2C 33 33 36 2E 37 2C 4D 2C 2D 33 24
47 50 47 47 41 2C 31 39 34 30 34 34 2E 30 30 30
2C 0 
Got: $GPGGA,194043.000,4026.4125,N,07956.6524,W,2,05,1.75,336.7,M,-3$GPGGA,194044.000,
RSSI: -64
Sent a reply
Received: 
24 47 50 47 47 41 2C 31 39 34 30 34 36 2E 30 30
30 2C 34 30 32 36 2E 34 31 32 35 2C 4E 2C 30 37
39 35 36 2E 36 35 32 31 2C 57 2C 32 2C 30 35 2C
31 2E 37 35 2C 33 33 36 2E 36 2C 4D 2C 2D 33 24
47 50 47 47 41 2C 31 39 34 30 34 37 2E 30 30 30
2C 0 
Got: $GPGGA,194046.000,4026.4125,N,07956.6521,W,2,05,1.75,336.6,M,-3$GPGGA,194047.000,
RSSI: -64
Sent a reply
Received: 
24 47 50 47 47 41 2C 31 39 34 30 34 39 2E 30 30
30 2C 34 30 32 36 2E 34 31 32 35 2C 4E 2C 30 37
39 35 36 2E 36 35 31 38 2C 57 2C 32 2C 30 35 2C
31 2E 37 35 2C 33 33 36 2E 36 2C 4D 2C 2D 33 24
47 50 47 47 41 2C 31 39 34 30 35 30 2E 30 30 30
2C 0 
Got: $GPGGA,194049.000,4026.4125,N,07956.6518,W,2,05,1.75,336.6,M,-3$GPGGA,194050.000,
RSSI: -66
Sent a reply
Received: 
24 47 50 47 47 41 2C 31 39 34 30 35 32 2E 30 30
30 2C 34 30 32 36 2E 34 31 32 34 2C 4E 2C 30 37
39 35 36 2E 36 35 31 37 2C 57 2C 32 2C 30 35 2C
31 2E 37 35 2C 33 33 36 2E 36 2C 4D 2C 2D 33 24
47 50 47 47 41 2C 31 39 34 30 35 33 2E 30 30 30
2C 0 
Got: $GPGGA,194052.000,4026.4124,N,07956.6517,W,2,05,1.75,336.6,M,-3$GPGGA,194053.000,
RSSI: -63
Sent a reply
Received: 
24 47 50 47 47 41 2C 31 39 34 30 35 35 2E 30 30
30 2C 34 30 32 36 2E 34 31 32 35 2C 4E 2C 30 37
39 35 36 2E 36 35 31 37 2C 57 2C 32 2C 30 35 2C
31 2E 37 35 2C 33 33 36 2E 36 2C 4D 2C 2D 33 24
47 50 47 47 41 2C 31 39 34 30 35 36 2E 30 30 30
2C 0 
Got: $GPGGA,194055.000,4026.4125,N,07956.6517,W,2,05,1.75,336.6,M,-3$GPGGA,194056.000,
RSSI: -64
Sent a reply
Received: 
24 47 50 47 47 41 2C 31 39 34 30 35 38 2E 30 30
30 2C 34 30 32 36 2E 34 31 32 33 2C 4E 2C 30 37
39 35 36 2E 36 35 31 36 2C 57 2C 32 2C 30 35 2C
31 2E 37 35 2C 33 33 36 2E 35 2C 4D 2C 2D 33 24
47 50 47 47 41 2C 31 39 34 30 35 39 2E 30 30 30
2C 0 
Got: $GPGGA,194058.000,4026.4123,N,07956.6516,W,2,05,1.75,336.5,M,-3$GPGGA,194059.000,
RSSI: -78
Sent a reply
Received: 
24 47 50 47 47 41 2C 31 39 34 31 30 31 2E 30 30
30 2C 34 30 32 36 2E 34 31 32 32 2C 4E 2C 30 37
39 35 36 2E 36 35 31 37 2C 57 2C 32 2C 30 35 2C
31 2E 37 35 2C 33 33 36 2E 35 2C 4D 2C 2D 33 24
47 50 47 47 41 2C 31 39 34 31 30 32 2E 30 30 30
2C 0 
Got: $GPGGA,194101.000,4026.4122,N,07956.6517,W,2,05,1.75,336.5,M,-3$GPGGA,194102.000,
RSSI: -60
Sent a reply
Received: 
24 47 50 47 47 41 2C 31 39 34 31 30 34 2E 30 30
30 2C 34 30 32 36 2E 34 31 32 30 2C 4E 2C 30 37
39 35 36 2E 36 35 31 37 2C 57 2C 32 2C 30 35 2C
31 2E 37 35 2C 33 33 36 2E 35 2C 4D 2C 2D 33 24
47 50 47 47 41 2C 31 39 34 31 30 35 2E 30 30 30
2C 0 
Got: $GPGGA,194104.000,4026.4120,N,07956.6517,W,2,05,1.75,336.5,M,-3$GPGGA,194105.000,
RSSI: -61
Sent a reply
Received: 
24 47 50 47 47 41 2C 31 39 34 31 30 37 2E 30 30
30 2C 34 30 32 36 2E 34 31 31 39 2C 4E 2C 30 37
39 35 36 2E 36 35 31 38 2C 57 2C 32 2C 30 35 2C
31 2E 37 35 2C 33 33 36 2E 35 2C 4D 2C 2D 33 24
47 50 47 47 41 2C 31 39 34 31 30 38 2E 30 30 30
2C 0 
Got: $GPGGA,194107.000,4026.4119,N,07956.6518,W,2,05,1.75,336.5,M,-3$GPGGA,194108.000,
RSSI: -72
Sent a reply
Received: 
24 47 50 47 47 41 2C 31 39 34 31 31 32 2E 30 30
30 2C 34 30 32 36 2E 34 31 31 38 2C 4E 2C 30 37
39 35 36 2E 36 35 31 37 2C 57 2C 32 2C 30 35 2C
31 2E 37 35 2C 33 33 35 2E 37 2C 4D 2C 2D 33 24
47 50 47 47 41 2C 31 39 34 31 31 33 2E 30 30 30
2C 0 
Got: $GPGGA,194112.000,4026.4118,N,07956.6517,W,2,05,1.75,335.7,M,-3$GPGGA,194113.000,
RSSI: -65
Sent a reply
Received: 
24 47 50 47 47 41 2C 31 39 34 31 31 35 2E 30 30
30 2C 34 30 32 36 2E 34 31 31 38 2C 4E 2C 30 37
39 35 36 2E 36 35 32 31 2C 57 2C 32 2C 30 35 2C
31 2E 37 35 2C 33 33 35 2E 30 2C 4D 2C 2D 33 24
47 50 47 47 41 2C 31 39 34 31 31 36 2E 30 30 30
2C 0 
Got: $GPGGA,194115.000,4026.4118,N,07956.6521,W,2,05,1.75,335.0,M,-3$GPGGA,194116.000,
RSSI: -76
Sent a reply
Received: 
24 47 50 47 47 41 2C 31 39 34 31 31 38 2E 30 30
30 2C 34 30 32 36 2E 34 31 31 39 2C 4E 2C 30 37
39 35 36 2E 36 35 32 32 2C 57 2C 32 2C 30 35 2C
31 2E 37 35 2C 33 33 35 2E 30 2C 4D 2C 2D 33 24
47 50 47 47 41 2C 31 39 34 31 31 39 2E 30 30 30
2C 0 
Got: $GPGGA,194118.000,4026.4119,N,07956.6522,W,2,05,1.75,335.0,M,-3$GPGGA,194119.000,
RSSI: -78
Sent a reply
Received: 
24 47 50 47 47 41 2C 31 39 34 31 32 31 2E 30 30
30 2C 34 30 32 36 2E 34 31 31 39 2C 4E 2C 30 37
39 35 36 2E 36 35 32 37 2C 57 2C 32 2C 30 35 2C
31 2E 37 35 2C 33 33 34 2E 39 2C 4D 2C 2D 33 24
47 50 47 47 41 2C 31 39 34 31 32 32 2E 30 30 30
2C 0 
Got: $GPGGA,194121.000,4026.4119,N,07956.6527,W,2,05,1.75,334.9,M,-3$GPGGA,194122.000,
RSSI: -78
Sent a reply
Received: 
24 47 50 47 47 41 2C 31 39 34 31 32 34 2E 30 30
30 2C 34 30 32 36 2E 34 31 31 37 2C 4E 2C 30 37
39 35 36 2E 36 35 33 35 2C 57 2C 32 2C 30 35 2C
31 2E 37 35 2C 33 33 34 2E 39 2C 4D 2C 2D 33 24
47 50 47 47 41 2C 31 39 34 31 32 35 2E 30 30 30
2C 0 
Got: $GPGGA,194124.000,4026.4117,N,07956.6535,W,2,05,1.75,334.9,M,-3$GPGGA,194125.000,
RSSI: -79
Sent a reply
Received: 
24 47 50 47 47 41 2C 31 39 34 31 32 37 2E 30 30
30 2C 34 30 32 36 2E 34 31 31 39 2C 4E 2C 30 37
39 35 36 2E 36 35 34 32 2C 57 2C 32 2C 30 35 2C
31 2E 37 35 2C 33 33 34 2E 38 2C 4D 2C 2D 33 24
47 50 47 47 41 2C 31 39 34 31 32 38 2E 30 30 30
2C 0 
Got: $GPGGA,194127.000,4026.4119,N,07956.6542,W,2,05,1.75,334.8,M,-3$GPGGA,194128.000,
RSSI: -74
Sent a reply
Received: 
24 47 50 47 47 41 2C 31 39 34 31 33 30 2E 30 30
30 2C 34 30 32 36 2E 34 31 31 39 2C 4E 2C 30 37
39 35 36 2E 36 35 35 31 2C 57 2C 32 2C 30 35 2C
31 2E 37 35 2C 33 33 35 2E 30 2C 4D 2C 2D 33 24
47 50 47 47 41 2C 31 39 34 31 33 31 2E 30 30 30
2C 0 
Got: $GPGGA,194130.000,4026.4119,N,07956.6551,W,2,05,1.75,335.0,M,-3$GPGGA,194131.000,
RSSI: -60
Sent a reply
Received: 
24 47 50 47 47 41 2C 31 39 34 31 33 33 2E 30 30
30 2C 34 30 32 36 2E 34 31 31 36 2C 4E 2C 30 37
39 35 36 2E 36 35 34 38 2C 57 2C 32 2C 30 35 2C
31 2E 37 35 2C 33 33 35 2E 33 2C 4D 2C 2D 33 24
47 50 47 47 41 2C 31 39 34 31 33 34 2E 30 30 30
2C 0 
Got: $GPGGA,194133.000,4026.4116,N,07956.6548,W,2,05,1.75,335.3,M,-3$GPGGA,194134.000,
RSSI: -65
Sent a reply
Received: 
24 47 50 47 47 41 2C 31 39 34 31 33 36 2E 30 30
30 2C 34 30 32 36 2E 34 31 31 34 2C 4E 2C 30 37
39 35 36 2E 36 35 34 38 2C 57 2C 32 2C 30 35 2C
31 2E 37 35 2C 33 33 35 2E 33 2C 4D 2C 2D 33 24
47 50 47 47 41 2C 31 39 34 31 33 37 2E 30 30 30
2C 0 
Got: $GPGGA,194136.000,4026.4114,N,07956.6548,W,2,05,1.75,335.3,M,-3$GPGGA,194137.000,
RSSI: -68
Sent a reply
Received: 
24 47 50 47 47 41 2C 31 39 34 31 33 39 2E 30 30
30 2C 34 30 32 36 2E 34 31 31 34 2C 4E 2C 30 37
39 35 36 2E 36 35 35 30 2C 57 2C 32 2C 30 35 2C
31 2E 37 35 2C 33 33 35 2E 33 2C 4D 2C 2D 33 24
47 50 47 47 41 2C 31 39 34 31 34 30 2E 30 30 30
2C 0 
Got: $GPGGA,194139.000,4026.4114,N,07956.6550,W,2,05,1.75,335.3,M,-3$GPGGA,194140.000,
RSSI: -63
Sent a reply
Received: 
24 47 50 47 47 41 2C 31 39 34 31 34 32 2E 30 30
30 2C 34 30 32 36 2E 34 31 31 33 2C 4E 2C 30 37
39 35 36 2E 36 35 34 39 2C 57 2C 32 2C 30 35 2C
31 2E 37 35 2C 33 33 35 2E 33 2C 4D 2C 2D 33 24
47 50 47 47 41 2C 31 39 34 31 34 33 2E 30 30 30
2C 0 
Got: $GPGGA,194142.000,4026.4113,N,07956.6549,W,2,05,1.75,335.3,M,-3$GPGGA,194143.000,
RSSI: -93
Sent a reply
Received: 
24 47 50 47 47 41 2C 31 39 34 31 34 35 2E 30 30
30 2C 34 30 32 36 2E 34 31 31 33 2C 4E 2C 30 37
39 35 36 2E 36 35 35 30 2C 57 2C 32 2C 30 35 2C
31 2E 37 35 2C 33 33 35 2E 33 2C 4D 2C 2D 33 24
47 50 47 47 41 2C 31 39 34 31 34 36 2E 30 30 30
2C 0 
Got: $GPGGA,194145.000,4026.4113,N,07956.6550,W,2,05,1.75,335.3,M,-3$GPGGA,194146.000,
RSSI: -80
Sent a reply
Received: 
24 47 50 47 47 41 2C 31 39 34 31 34 38 2E 30 30
30 2C 34 30 32 36 2E 34 31 31 33 2C 4E 2C 30 37
39 35 36 2E 36 35 34 39 2C 57 2C 32 2C 30 35 2C
31 2E 37 35 2C 33 33 35 2E 32 2C 4D 2C 2D 33 24
47 50 47 47 41 2C 31 39 34 31 34 39 2E 30 30 30
2C 0 
Got: $GPGGA,194148.000,4026.4113,N,07956.6549,W,2,05,1.75,335.2,M,-3$GPGGA,194149.000,
RSSI: -79
Sent a reply
Received: 
24 47 50 47 47 41 2C 31 39 34 31 35 31 2E 30 30
30 2C 34 30 32 36 2E 34 31 31 32 2C 4E 2C 30 37
39 35 36 2E 36 35 34 37 2C 57 2C 32 2C 30 35 2C
31 2E 37 35 2C 33 33 35 2E 32 2C 4D 2C 2D 33 24
47 50 47 47 41 2C 31 39 34 31 35 32 2E 30 30 30
2C 0 
Got: $GPGGA,194151.000,4026.4112,N,07956.6547,W,2,05,1.75,335.2,M,-3$GPGGA,194152.000,
RSSI: -78
Sent a reply
Received: 
24 47 50 47 47 41 2C 31 39 34 31 35 34 2E 30 30
30 2C 34 30 32 36 2E 34 31 31 32 2C 4E 2C 30 37
39 35 36 2E 36 35 34 37 2C 57 2C 32 2C 30 35 2C
31 2E 37 35 2C 33 33 35 2E 32 2C 4D 2C 2D 33 24
47 50 47 47 41 2C 31 39 34 31 35 35 2E 30 30 30
2C 0 
Got: $GPGGA,194154.000,4026.4112,N,07956.6547,W,2,05,1.75,335.2,M,-3$GPGGA,194155.000,
RSSI: -78
Sent a reply
Received: 
24 47 50 47 47 41 2C 31 39 34 31 35 37 2E 30 30
30 2C 34 30 32 36 2E 34 31 31 31 2C 4E 2C 30 37
39 35 36 2E 36 35 34 37 2C 57 2C 32 2C 30 35 2C
31 2E 37 35 2C 33 33 35 2E 32 2C 4D 2C 2D 33 24
47 50 47 47 41 2C 31 39 34 31 35 38 2E 30 30 30
2C 0 
Got: $GPGGA,194157.000,4026.4111,N,07956.6547,W,2,05,1.75,335.2,M,-3$GPGGA,194158.000,
RSSI: -77
Sent a reply
Received: 
24 47 50 47 47 41 2C 31 39 34 32 30 30 2E 30 30
30 2C 34 30 32 36 2E 34 31 31 31 2C 4E 2C 30 37
39 35 36 2E 36 35 34 37 2C 57 2C 32 2C 30 35 2C
33 2E 31 37 2C 33 33 35 2E 32 2C 4D 2C 2D 33 24
47 50 47 47 41 2C 31 39 34 32 30 31 2E 30 30 30
2C 0 
Got: $GPGGA,194200.000,4026.4111,N,07956.6547,W,2,05,3.17,335.2,M,-3$GPGGA,194201.000,
RSSI: -70
Sent a reply
Received: 
24 47 50 47 47 41 2C 31 39 34 32 30 35 2E 30 30
30 2C 34 30 32 36 2E 34 31 37 34 2C 4E 2C 30 37
39 35 36 2E 36 34 36 30 2C 57 2C 31 2C 30 36 2C
31 2E 32 38 2C 33 33 34 2E 33 2C 4D 2C 2D 33 33
2E 30 2C 4D 2C 2C 2A 35 44 D A 0 2E 30 30 30
2C 0 
Got: $GPGGA,194205.000,4026.4174,N,07956.6460,W,1,06,1.28,334.3,M,-33.0,M,,*5D

RSSI: -75
Sent a reply
Received: 
24 47 50 47 47 41 2C 31 39 34 32 30 37 2E 30 30
30 2C 34 30 32 36 2E 34 31 35 32 2C 4E 2C 30 37
39 35 36 2E 36 34 37 32 2C 57 2C 31 2C 30 36 2C
31 2E 32 38 2C 33 33 34 2E 35 2C 4D 2C 2D 33 24
47 50 47 47 41 2C 31 39 34 32 30 38 2E 30 30 30
2C 0 
Got: $GPGGA,194207.000,4026.4152,N,07956.6472,W,1,06,1.28,334.5,M,-3$GPGGA,194208.000,
RSSI: -76
Sent a reply
Received: 
24 47 50 47 47 41 2C 31 39 34 32 31 30 2E 30 30
30 2C 34 30 32 36 2E 34 31 34 34 2C 4E 2C 30 37
39 35 36 2E 36 34 38 31 2C 57 2C 31 2C 30 36 2C
31 2E 32 38 2C 33 33 34 2E 36 2C 4D 2C 2D 33 24
47 50 47 47 41 2C 31 39 34 32 31 31 2E 30 30 30
2C 0 
Got: $GPGGA,194210.000,4026.4144,N,07956.6481,W,1,06,1.28,334.6,M,-3$GPGGA,194211.000,
RSSI: -81
Sent a reply
Received: 
24 47 50 47 47 41 2C 31 39 34 32 31 33 2E 30 30
30 2C 34 30 32 36 2E 34 31 34 36 2C 4E 2C 30 37
39 35 36 2E 36 34 38 36 2C 57 2C 31 2C 30 36 2C
31 2E 32 38 2C 33 33 34 2E 37 2C 4D 2C 2D 33 24
47 50 47 47 41 2C 31 39 34 32 31 34 2E 30 30 30
2C 0 
Got: $GPGGA,194213.000,4026.4146,N,07956.6486,W,1,06,1.28,334.7,M,-3$GPGGA,194214.000,
RSSI: -81
Sent a reply
Received: 
24 47 50 47 47 41 2C 31 39 34 32 31 36 2E 30 30
30 2C 34 30 32 36 2E 34 31 34 32 2C 4E 2C 30 37
39 35 36 2E 36 34 39 30 2C 57 2C 31 2C 30 36 2C
31 2E 32 38 2C 33 33 34 2E 38 2C 4D 2C 2D 33 24
47 50 47 47 41 2C 31 39 34 32 31 37 2E 30 30 30
2C 0 
Got: $GPGGA,194216.000,4026.4142,N,07956.6490,W,1,06,1.28,334.8,M,-3$GPGGA,194217.000,
RSSI: -92
Sent a reply
Received: 
24 47 50 47 47 41 2C 31 39 34 32 31 39 2E 30 30
30 2C 34 30 32 36 2E 34 31 33 36 2C 4E 2C 30 37
39 35 36 2E 36 35 30 31 2C 57 2C 31 2C 30 36 2C
31 2E 32 38 2C 33 33 34 2E 38 2C 4D 2C 2D 33 24
47 50 47 47 41 2C 31 39 34 32 32 30 2E 30 30 30
2C 0 
Got: $GPGGA,194219.000,4026.4136,N,07956.6501,W,1,06,1.28,334.8,M,-3$GPGGA,194220.000,
RSSI: -89
Sent a reply
Received: 
24 47 50 47 47 41 2C 31 39 34 32 32 32 2E 30 30
30 2C 34 30 32 36 2E 34 31 32 36 2C 4E 2C 30 37
39 35 36 2E 36 35 31 31 2C 57 2C 31 2C 30 36 2C
31 2E 32 38 2C 33 33 34 2E 37 2C 4D 2C 2D 33 47
50 56 54 47 2C 32 35 36 2E 32 31 2C 54 2C 2C 4D
2C 0 
Got: $GPGGA,194222.000,4026.4126,N,07956.6511,W,1,06,1.28,334.7,M,-3GPVTG,256.21,T,,M,
RSSI: -99
Sent a reply
Received: 
24 47 50 47 47 41 2C 31 39 34 32 32 33 2E 30 30
30 2C 34 30 32 36 2E 34 31 32 35 2C 4E 2C 30 37
39 35 36 2E 36 35 31 31 2C 57 2C 31 2C 30 36 2C
31 2E 32 38 2C 33 33 34 2E 37 2C 4D 2C 2D 33 34
2E 30 30 30 2C 34 30 32 36 2E 34 31 32 39 2C 4E
2C 0 
Got: $GPGGA,194223.000,4026.4125,N,07956.6511,W,1,06,1.28,334.7,M,-34.000,4026.4129,N,
RSSI: -98
Sent a reply
Received: 
24 47 50 47 47 41 2C 31 39 34 32 32 36 2E 30 30
30 2C 34 30 32 36 2E 34 31 33 37 2C 4E 2C 30 37
39 35 36 2E 36 35 31 37 2C 57 2C 31 2C 30 36 2C
31 2E 32 38 2C 33 33 34 2E 37 2C 4D 2C 2D 33 24
47 50 47 47 41 2C 31 39 34 32 32 37 2E 30 30 30
2C 0 
Got: $GPGGA,194226.000,4026.4137,N,07956.6517,W,1,06,1.28,334.7,M,-3$GPGGA,194227.000,
RSSI: -93
Sent a reply
Received: 
24 47 50 47 47 41 2C 31 39 34 32 32 39 2E 30 30
30 2C 34 30 32 36 2E 34 31 35 33 2C 4E 2C 30 37
39 35 36 2E 36 35 33 32 2C 57 2C 31 2C 30 36 2C
31 2E 32 38 2C 33 33 34 2E 36 2C 4D 2C 2D 33 24
47 50 47 47 41 2C 31 39 34 32 33 30 2E 30 30 30
2C 0 
Got: $GPGGA,194229.000,4026.4153,N,07956.6532,W,1,06,1.28,334.6,M,-3$GPGGA,194230.000,
RSSI: -95
Sent a reply
Received: 
24 47 50 47 47 41 2C 31 39 34 32 33 32 2E 30 30
30 2C 34 30 32 36 2E 34 31 36 33 2C 4E 2C 30 37
39 35 36 2E 36 35 34 38 2C 57 2C 31 2C 30 36 2C
31 2E 32 38 2C 33 33 34 2E 35 2C 4D 2C 2D 33 24
47 50 47 47 41 2C 31 39 34 32 33 33 2E 30 30 30
2C 0 
Got: $GPGGA,194232.000,4026.4163,N,07956.6548,W,1,06,1.28,334.5,M,-3$GPGGA,194233.000,
RSSI: -95
Sent a reply
Received: 
24 47 50 47 47 41 2C 31 39 34 32 33 35 2E 30 30
30 2C 34 30 32 36 2E 34 31 36 38 2C 4E 2C 30 37
39 35 36 2E 36 35 36 33 2C 57 2C 31 2C 30 36 2C
31 2E 32 38 2C 33 33 34 2E 35 2C 4D 2C 2D 33 24
47 50 47 47 41 2C 31 39 34 32 33 36 2E 30 30 30
2C 0 
Got: $GPGGA,194235.000,4026.4168,N,07956.6563,W,1,06,1.28,334.5,M,-3$GPGGA,194236.000,
RSSI: -97
Sent a reply
Received: 
24 47 50 47 47 41 2C 31 39 34 32 33 38 2E 30 30
30 2C 34 30 32 36 2E 34 31 36 37 2C 4E 2C 30 37
39 35 36 2E 36 35 37 35 2C 57 2C 31 2C 30 36 2C
31 2E 32 38 2C 33 33 34 2E 35 2C 4D 2C 2D 33 24
47 50 47 47 41 2C 31 39 34 32 33 39 2E 30 30 30
2C 0 
Got: $GPGGA,194238.000,4026.4167,N,07956.6575,W,1,06,1.28,334.5,M,-3$GPGGA,194239.000,
RSSI: -100
Sent a reply
Received: 
24 47 50 47 47 41 2C 31 39 34 32 34 31 2E 30 30
30 2C 34 30 32 36 2E 34 31 36 38 2C 4E 2C 30 37
39 35 36 2E 36 35 38 39 2C 57 2C 31 2C 30 36 2C
31 2E 32 38 2C 33 33 34 2E 35 2C 4D 2C 2D 33 24
47 50 47 47 41 2C 31 39 34 32 34 32 2E 30 30 30
2C 0 
Got: $GPGGA,194241.000,4026.4168,N,07956.6589,W,1,06,1.28,334.5,M,-3$GPGGA,194242.000,
RSSI: -112
Sent a reply
Received: 
24 47 50 47 47 41 2C 31 39 34 32 34 39 2E 30 30
30 2C 34 30 32 36 2E 34 31 37 37 2C 4E 2C 30 37
39 35 36 2E 36 36 33 38 2C 57 2C 31 2C 30 36 2C
31 2E 32 38 2C 33 33 34 2E 32 2C 4D 2C 2D 33 24
47 50 47 47 41 2C 31 39 34 32 35 30 2E 30 30 30
2C 0 
Got: $GPGGA,194249.000,4026.4177,N,07956.6638,W,1,06,1.28,334.2,M,-3$GPGGA,194250.000,
RSSI: -115
Sent a reply
Received: 
24 47 50 47 47 41 2C 31 39 34 32 35 32 2E 30 30
30 2C 34 30 32 36 2E 34 31 37 37 2C 4E 2C 30 37
39 35 36 2E 36 36 36 31 2C 57 2C 31 2C 30 36 2C
31 2E 32 38 2C 33 33 34 2E 32 2C 4D 2C 2D 33 24
47 50 47 47 41 2C 31 39 34 32 35 33 2E 30 30 30
2C 0 
Got: $GPGGA,194252.000,4026.4177,N,07956.6661,W,1,06,1.28,334.2,M,-3$GPGGA,194253.000,
RSSI: -108
Sent a reply
Received: 
24 47 50 47 47 41 2C 31 39 34 32 35 35 2E 30 30
30 2C 34 30 32 36 2E 34 31 37 37 2C 4E 2C 30 37
39 35 36 2E 36 36 38 32 2C 57 2C 31 2C 30 36 2C
31 2E 32 38 2C 33 33 34 2E 32 2C 4D 2C 2D 33 24
47 50 47 47 41 2C 31 39 34 32 35 36 2E 30 30 30
2C 0 
Got: $GPGGA,194255.000,4026.4177,N,07956.6682,W,1,06,1.28,334.2,M,-3$GPGGA,194256.000,
RSSI: -119
Sent a reply
Received: 
24 47 50 47 47 41 2C 31 39 34 32 35 38 2E 30 30
30 2C 34 30 32 36 2E 34 31 38 31 2C 4E 2C 30 37
39 35 36 2E 36 36 39 39 2C 57 2C 31 2C 30 36 2C
31 2E 32 38 2C 33 33 34 2E 33 2C 4D 2C 2D 33 24
47 50 47 47 41 2C 31 39 34 32 35 39 2E 30 30 30
2C 0 
Got: $GPGGA,194258.000,4026.4181,N,07956.6699,W,1,06,1.28,334.3,M,-3$GPGGA,194259.000,
RSSI: -108
Sent a reply
Received: 
24 47 50 47 47 41 2C 31 39 34 33 30 31 2E 30 30
30 2C 34 30 32 36 2E 34 31 37 39 2C 4E 2C 30 37
39 35 36 2E 36 37 31 39 2C 57 2C 31 2C 30 36 2C
31 2E 32 38 2C 33 33 34 2E 33 2C 4D 2C 2D 33 24
47 50 47 47 41 2C 31 39 34 33 30 32 2E 30 30 30
2C 0 
Got: $GPGGA,194301.000,4026.4179,N,07956.6719,W,1,06,1.28,334.3,M,-3$GPGGA,194302.000,
RSSI: -113
Sent a reply
Received: 
24 47 50 47 47 41 2C 31 39 34 33 30 34 2E 30 30
30 2C 34 30 32 36 2E 34 31 38 34 2C 4E 2C 30 37
39 35 36 2E 36 37 34 33 2C 57 2C 31 2C 30 36 2C
31 2E 32 38 2C 33 33 34 2E 31 2C 4D 2C 2D 33 24
47 50 47 47 41 2C 31 39 34 33 30 35 2E 30 30 30
2C 0 
Got: $GPGGA,194304.000,4026.4184,N,07956.6743,W,1,06,1.28,334.1,M,-3$GPGGA,194305.000,
RSSI: -123
Sent a reply
Received: 
24 47 50 47 47 41 2C 31 39 34 33 30 37 2E 30 30
30 2C 34 30 32 36 2E 34 31 38 37 2C 4E 2C 30 37
39 35 36 2E 36 37 36 36 2C 57 2C 31 2C 30 36 2C
31 2E 32 38 2C 33 33 33 2E 39 2C 4D 2C 2D 33 24
47 50 47 47 41 2C 31 39 34 33 30 38 2E 30 30 30
2C 0 
Got: $GPGGA,194307.000,4026.4187,N,07956.6766,W,1,06,1.28,333.9,M,-3$GPGGA,194308.000,
RSSI: -114
Sent a reply
Received: 
24 47 50 47 47 41 2C 31 39 34 33 31 30 2E 30 30
30 2C 34 30 32 36 2E 34 31 38 39 2C 4E 2C 30 37
39 35 36 2E 36 37 39 31 2C 57 2C 31 2C 30 36 2C
31 2E 32 38 2C 33 33 33 2E 37 2C 4D 2C 2D 33 24
47 50 47 47 41 2C 31 39 34 33 31 31 2E 30 30 30
2C 0 
Got: $GPGGA,194310.000,4026.4189,N,07956.6791,W,1,06,1.28,333.7,M,-3$GPGGA,194311.000,
RSSI: -118
Sent a reply
Received: 
24 47 50 47 47 41 2C 31 39 34 33 31 33 2E 30 30
30 2C 34 30 32 36 2E 34 31 38 38 2C 4E 2C 30 37
39 35 36 2E 36 38 31 34 2C 57 2C 31 2C 30 36 2C
31 2E 32 38 2C 33 33 33 2E 34 2C 4D 2C 2D 33 24
47 50 47 47 41 2C 31 39 34 33 31 34 2E 30 30 30
2C 0 
Got: $GPGGA,194313.000,4026.4188,N,07956.6814,W,1,06,1.28,333.4,M,-3$GPGGA,194314.000,
RSSI: -108
Sent a reply
Received: 
24 47 50 47 47 41 2C 31 39 34 33 32 30 2E 30 30
30 2C 34 30 32 36 2E 34 31 37 39 2C 4E 2C 30 37
39 35 36 2E 36 38 36 34 2C 57 2C 31 2C 30 36 2C
31 2E 32 38 2C 33 33 32 2E 31 2C 4D 2C 2D 33 24
47 50 47 47 41 2C 31 39 34 33 32 31 2E 30 30 30
2C 0 
Got: $GPGGA,194320.000,4026.4179,N,07956.6864,W,1,06,1.28,332.1,M,-3$GPGGA,194321.000,
RSSI: -117
Sent a reply
Received: 
24 47 50 47 47 41 2C 31 39 34 33 32 37 2E 30 30
30 2C 34 30 32 36 2E 34 31 37 37 2C 4E 2C 30 37
39 35 36 2E 36 39 30 37 2C 57 2C 31 2C 30 36 2C
31 2E 32 38 2C 33 33 30 2E 36 2C 4D 2C 2D 33 2C
34 30 32 36 2E 34 31 37 37 2C 4E 2C 30 37 39 35
36 0 
Got: $GPGGA,194327.000,4026.4177,N,07956.6907,W,1,06,1.28,330.6,M,-3,4026.4177,N,07956
RSSI: -117
Sent a reply
Received: 
24 47 50 47 47 41 2C 31 39 34 33 33 34 2E 30 30
30 2C 34 30 32 36 2E 34 31 37 39 2C 4E 2C 30 37
39 35 36 2E 36 39 35 35 2C 57 2C 31 2C 30 36 2C
31 2E 32 37 2C 33 32 38 2E 38 2C 4D 2C 2D 33 24
47 50 47 47 41 2C 31 39 34 33 33 35 2E 30 30 30
2C 0 
Got: $GPGGA,194334.000,4026.4179,N,07956.6955,W,1,06,1.27,328.8,M,-3$GPGGA,194335.000,
RSSI: -117
Sent a reply
Received: 
24 47 50 47 47 41 2C 31 39 34 33 33 37 2E 30 30
30 2C 34 30 32 36 2E 34 31 37 38 2C 4E 2C 30 37
39 35 36 2E 36 39 37 32 2C 57 2C 31 2C 30 36 2C
31 2E 32 37 2C 33 32 38 2E 30 2C 4D 2C 2D 33 24
47 50 47 47 41 2C 31 39 34 33 33 38 2E 30 30 30
2C 0 
Got: $GPGGA,194337.000,4026.4178,N,07956.6972,W,1,06,1.27,328.0,M,-3$GPGGA,194338.000,
RSSI: -122
Sent a reply
Received: 
24 47 50 47 47 41 2C 31 39 34 33 34 30 2E 30 30
30 2C 34 30 32 36 2E 34 31 37 38 2C 4E 2C 30 37
39 35 36 2E 36 39 38 37 2C 57 2C 31 2C 30 36 2C
31 2E 32 37 2C 33 32 37 2E 39 2C 4D 2C 2D 33 24
47 50 47 47 41 2C 31 39 34 33 34 31 2E 30 30 30
2C 0 
Got: $GPGGA,194340.000,4026.4178,N,07956.6987,W,1,06,1.27,327.9,M,-3$GPGGA,194341.000,
RSSI: -115
Sent a reply
Received: 
24 47 50 47 47 41 2C 31 39 34 33 34 37 2E 30 30
30 2C 34 30 32 36 2E 34 31 37 39 2C 4E 2C 30 37
39 35 36 2E 37 30 33 36 2C 57 2C 31 2C 30 36 2C
31 2E 32 37 2C 33 32 35 2E 38 2C 4D 2C 2D 33 32
2A 37 39 D A 24 47 50 47 53 56 2C 33 2C 33 2C
30 0 
Got: $GPGGA,194347.000,4026.4179,N,07956.7036,W,1,06,1.27,325.8,M,-32*79
$GPGSV,3,3,0
RSSI: -115
Sent a reply
Received: 
24 47 50 47 47 41 2C 31 39 34 33 35 34 2E 30 30
30 2C 34 30 32 36 2E 34 31 37 38 2C 4E 2C 30 37
39 35 36 2E 37 31 30 38 2C 57 2C 31 2C 30 36 2C
31 2E 32 37 2C 33 32 32 2E 35 2C 4D 2C 2D 33 24
47 50 47 47 41 2C 31 39 34 33 35 35 2E 30 30 30
2C 0 
Got: $GPGGA,194354.000,4026.4178,N,07956.7108,W,1,06,1.27,322.5,M,-3$GPGGA,194355.000,
RSSI: -113
Sent a reply
Received: 
24 47 50 47 47 41 2C 31 39 34 34 30 31 2E 30 30
30 2C 34 30 32 36 2E 34 31 38 33 2C 4E 2C 30 37
39 35 36 2E 37 31 37 39 2C 57 2C 31 2C 30 36 2C
31 2E 32 37 2C 33 31 38 2E 34 2C 4D 2C 2D 33 24
47 50 47 47 41 2C 31 39 34 34 30 32 2E 30 30 30
2C 0 
Got: $GPGGA,194401.000,4026.4183,N,07956.7179,W,1,06,1.27,318.4,M,-3$GPGGA,194402.000,
RSSI: -104
Sent a reply
